{
  "UTK": {
    "name": "Utirik Airport",
    "latitude_deg": 11.222000000000001,
    "longitude_deg": 169.852005
  },
  "OCA": {
    "name": "Ocean Reef Club Airport",
    "latitude_deg": 25.325399398804002,
    "longitude_deg": -80.274803161621
  },
  "PQS": {
    "name": "Pilot Station Airport",
    "latitude_deg": 61.934601,
    "longitude_deg": -162.899994
  },
  "CSE": {
    "name": "Crested Butte Airpark",
    "latitude_deg": 38.851918,
    "longitude_deg": -106.92834099999999
  },
  "JCY": {
    "name": "LBJ Ranch Airport",
    "latitude_deg": 30.251800537100006,
    "longitude_deg": -98.6224975586
  },
  "PMX": {
    "name": "Metropolitan Airport",
    "latitude_deg": 42.223301,
    "longitude_deg": -72.311401
  },
  "WLR": {
    "name": "Loring Seaplane Base",
    "latitude_deg": 55.601299285900005,
    "longitude_deg": -131.636993408
  },
  "NUP": {
    "name": "Nunapitchuk Airport",
    "latitude_deg": 60.905591,
    "longitude_deg": -162.44045400000002
  },
  "PTC": {
    "name": "Port Alice Seaplane Base",
    "latitude_deg": 55.803000000000004,
    "longitude_deg": -133.597
  },
  "ICY": {
    "name": "Icy Bay Airport",
    "latitude_deg": 59.966269,
    "longitude_deg": -141.66011799999998
  },
  "PPV": {
    "name": "Port Protection Seaplane Base",
    "latitude_deg": 56.328800201415994,
    "longitude_deg": -133.61000061035
  },
  "KKK": {
    "name": "Kalakaket Creek AS Airport",
    "latitude_deg": 64.4166256967,
    "longitude_deg": -156.820392609
  },
  "MHS": {
    "name": "Dunsmuir Muni-Mott Airport",
    "latitude_deg": 41.263199,
    "longitude_deg": -122.272003
  },
  "NIR": {
    "name": "Chase Field Industrial Airport",
    "latitude_deg": 28.362444,
    "longitude_deg": -97.661917
  },
  "GCT": {
    "name": "Grand Canyon Bar Ten Airstrip",
    "latitude_deg": 36.258614,
    "longitude_deg": -113.231159
  },
  "ELW": {
    "name": "Ellamar Seaplane Base",
    "latitude_deg": 60.893818,
    "longitude_deg": -146.704038
  },
  "LVD": {
    "name": "Lime Village Airport",
    "latitude_deg": 61.3591003418,
    "longitude_deg": -155.440002441
  },
  "HGZ": {
    "name": "Hog River Airport",
    "latitude_deg": 66.21610260000001,
    "longitude_deg": -155.6690063
  },
  "OTN": {
    "name": "Ed-Air Airport",
    "latitude_deg": 38.851782,
    "longitude_deg": -87.49987
  },
  "TLF": {
    "name": "Telida Airport",
    "latitude_deg": 63.393901824951,
    "longitude_deg": -153.26899719238
  },
  "BZT": {
    "name": "Eagle Air Park",
    "latitude_deg": 28.982200622559,
    "longitude_deg": -95.579696655273
  },
  "HBH": {
    "name": "Entrance Island Seaplane Base",
    "latitude_deg": 57.412201,
    "longitude_deg": -133.43848
  },
  "FAK": {
    "name": "False Island Seaplane Base",
    "latitude_deg": 57.5321998596,
    "longitude_deg": -135.212997437
  },
  "BYW": {
    "name": "Blakely Island Airport",
    "latitude_deg": 48.578998565700005,
    "longitude_deg": -122.82599639899999
  },
  "DRF": {
    "name": "Drift River Airport",
    "latitude_deg": 60.5889015198,
    "longitude_deg": -152.162002563
  },
  "BDF": {
    "name": "Rinkenberger Restricted Landing Area",
    "latitude_deg": 41.2308998108,
    "longitude_deg": -89.61569976810001
  },
  "VRS": {
    "name": "Roy Otten Memorial Airfield",
    "latitude_deg": 38.427799224854,
    "longitude_deg": -92.875198364258
  },
  "GDH": {
    "name": "Golden Horn Lodge Seaplane Base",
    "latitude_deg": 59.7470016479,
    "longitude_deg": -158.875
  },
  "ATT": {
    "name": "Atmautluak Airport",
    "latitude_deg": 60.866699,
    "longitude_deg": -162.272996
  },
  "LIV": {
    "name": "Livengood Camp Airport",
    "latitude_deg": 65.467,
    "longitude_deg": -148.6534
  },
  "PDB": {
    "name": "Pedro Bay Airport",
    "latitude_deg": 59.789600372299994,
    "longitude_deg": -154.12399292
  },
  "KOZ": {
    "name": "Ouzinkie Airport",
    "latitude_deg": 57.925362,
    "longitude_deg": -152.496715
  },
  "TNK": {
    "name": "Tununak Airport",
    "latitude_deg": 60.575500488281,
    "longitude_deg": -165.27200317383
  },
  "EVA": {
    "name": "Ben Bruce Memorial Airpark",
    "latitude_deg": 30.324581,
    "longitude_deg": -94.075413
  },
  "WHD": {
    "name": "Hyder Seaplane Base",
    "latitude_deg": 55.903324,
    "longitude_deg": -130.009975
  },
  "MNT": {
    "name": "Minto Al Wright Airport",
    "latitude_deg": 65.1437,
    "longitude_deg": -149.369995
  },
  "TKI": {
    "name": "Tokeen Seaplane Base",
    "latitude_deg": 55.937099456800006,
    "longitude_deg": -133.32699585
  },
  "WKK": {
    "name": "Aleknagik / New Airport",
    "latitude_deg": 59.2826004028,
    "longitude_deg": -158.617996216
  },
  "WFB": {
    "name": "Ketchikan Harbor Seaplane Base",
    "latitude_deg": 55.349899,
    "longitude_deg": -131.67700200000002
  },
  "NNK": {
    "name": "Naknek Airport",
    "latitude_deg": 58.73563299999999,
    "longitude_deg": -157.02216
  },
  "BKF": {
    "name": "Lake Brooks Seaplane Base",
    "latitude_deg": 58.554798126221,
    "longitude_deg": -155.77699279785
  },
  "BCS": {
    "name": "Southern Seaplane Airport",
    "latitude_deg": 29.866078,
    "longitude_deg": -90.021608
  },
  "SPQ": {
    "name": "Catalina Air-Sea Terminal Heliport",
    "latitude_deg": 33.749198913600004,
    "longitude_deg": -118.275001526
  },
  "TSS": {
    "name": "East 34th Street Heliport",
    "latitude_deg": 40.74259948730469,
    "longitude_deg": -73.97209930419922
  },
  "QNY": {
    "name": "New York Skyports Inc Seaplane Base",
    "latitude_deg": 40.735061,
    "longitude_deg": -73.972814
  },
  "BWL": {
    "name": "Earl Henry Airport",
    "latitude_deg": 36.7958984375,
    "longitude_deg": -97.31700134280001
  },
  "WYB": {
    "name": "Yes Bay Lodge Seaplane Base",
    "latitude_deg": 55.916301727299995,
    "longitude_deg": -131.80099487299998
  },
  "CWS": {
    "name": "Center Island Airport",
    "latitude_deg": 48.4901008606,
    "longitude_deg": -122.83200073200001
  },
  "TEK": {
    "name": "Tatitlek Airport",
    "latitude_deg": 60.871449,
    "longitude_deg": -146.690297
  },
  "DUF": {
    "name": "Pine Island Airport",
    "latitude_deg": 36.2535018921,
    "longitude_deg": -75.7884979248
  },
  "SSW": {
    "name": "Stuart Island Airpark",
    "latitude_deg": 48.673379,
    "longitude_deg": -123.17543899999998
  },
  "FOB": {
    "name": "Fort Bragg Airport",
    "latitude_deg": 39.4743003845,
    "longitude_deg": -123.79599762
  },
  "PUL": {
    "name": "Port of Poulsbo Marina Moorage Seaplane Base",
    "latitude_deg": 47.734001159668,
    "longitude_deg": -122.64700317383002
  },
  "CCD": {
    "name": "Century City Heliport",
    "latitude_deg": 34.060798645,
    "longitude_deg": -118.41799926799999
  },
  "WMK": {
    "name": "Meyers Chuck Seaplane Base",
    "latitude_deg": 55.7396011353,
    "longitude_deg": -132.255004883
  },
  "AXB": {
    "name": "Maxson Airfield",
    "latitude_deg": 44.312002,
    "longitude_deg": -75.90034
  },
  "REE": {
    "name": "Reese Airpark",
    "latitude_deg": 33.590301513671996,
    "longitude_deg": -102.03700256348
  },
  "WDN": {
    "name": "Waldron Airstrip",
    "latitude_deg": 48.7118,
    "longitude_deg": -123.01799799999999
  },
  "WWP": {
    "name": "Whale Pass Seaplane Float Harbor Facility",
    "latitude_deg": 56.116299,
    "longitude_deg": -133.121994
  },
  "CHU": {
    "name": "Chuathbaluk Airport",
    "latitude_deg": 61.579102,
    "longitude_deg": -159.216003
  },
  "UGS": {
    "name": "Ugashik Airport",
    "latitude_deg": 57.523476,
    "longitude_deg": -157.396344
  },
  "MXG": {
    "name": "Marlboro Airport",
    "latitude_deg": 42.343201,
    "longitude_deg": -71.509002
  },
  "PSQ": {
    "name": "Philadelphia Seaplane Base",
    "latitude_deg": 39.859001159668004,
    "longitude_deg": -75.299598693848
  },
  "KLL": {
    "name": "Levelock Airport",
    "latitude_deg": 59.126059999999995,
    "longitude_deg": -156.860906
  },
  "SGW": {
    "name": "Saginaw Seaplane Base",
    "latitude_deg": 56.8862991333,
    "longitude_deg": -134.158004761
  },
  "WTL": {
    "name": "Tuntutuliak Airport",
    "latitude_deg": 60.335300445600005,
    "longitude_deg": -162.667007446
  },
  "TWA": {
    "name": "Twin Hills Airport",
    "latitude_deg": 59.07559967040999,
    "longitude_deg": -160.27299499512
  },
  "KCQ": {
    "name": "Chignik Lake Airport",
    "latitude_deg": 56.25500106810001,
    "longitude_deg": -158.774993896
  },
  "AAD": {
    "name": "Adado Airport",
    "latitude_deg": 6.095802,
    "longitude_deg": 46.6375
  },
  "ABP": {
    "name": "Atkamba Airport",
    "latitude_deg": -6.06462,
    "longitude_deg": 141.095173
  },
  "ABW": {
    "name": "Abau Airport",
    "latitude_deg": -10.1956,
    "longitude_deg": 148.7389
  },
  "ALV": {
    "name": "Andorra la Vella (Our Lady of Meritxell Hospital) Heliport",
    "latitude_deg": 42.511228,
    "longitude_deg": 1.533651
  },
  "ADC": {
    "name": "Andakombe Airport",
    "latitude_deg": -7.13722222222,
    "longitude_deg": 145.744722222
  },
  "ADV": {
    "name": "El Daein Airport",
    "latitude_deg": 11.4023,
    "longitude_deg": 26.1186
  },
  "DJH": {
    "name": "Jebel Ali Seaplane Base",
    "latitude_deg": 24.988967000000002,
    "longitude_deg": 55.023796
  },
  "AEE": {
    "name": "Adareil Airport",
    "latitude_deg": 10.0536111111,
    "longitude_deg": 32.9594444444
  },
  "AEK": {
    "name": "Aseki Airport",
    "latitude_deg": -7.350804855519999,
    "longitude_deg": 146.19386673
  },
  "AEQ": {
    "name": "Ar Horqin Airport",
    "latitude_deg": 43.87042,
    "longitude_deg": 120.15958
  },
  "KHT": {
    "name": "Khost International Airport",
    "latitude_deg": 33.284605,
    "longitude_deg": 69.80734
  },
  "URZ": {
    "name": "Or\u016bzg\u0101n Airport",
    "latitude_deg": 32.9029998779,
    "longitude_deg": 66.630897522
  },
  "OLR": {
    "name": "Salerno Airport",
    "latitude_deg": 33.3638,
    "longitude_deg": 69.9561
  },
  "AFK": {
    "name": "Kondavattavana Tank Seaplane Base",
    "latitude_deg": 7.284,
    "longitude_deg": 81.64399999999999
  },
  "AFR": {
    "name": "Afore Airstrip",
    "latitude_deg": -9.142222222220001,
    "longitude_deg": 148.390833333
  },
  "AFT": {
    "name": "Afutara Aerodrome",
    "latitude_deg": -9.19138888889,
    "longitude_deg": 160.948611111
  },
  "RNA": {
    "name": "Ulawa Airport",
    "latitude_deg": -9.86054358262,
    "longitude_deg": 161.979546547
  },
  "ATD": {
    "name": "Uru Harbour Airport",
    "latitude_deg": -8.873330000000001,
    "longitude_deg": 161.011002
  },
  "VEV": {
    "name": "Barakoma Airport",
    "latitude_deg": -7.912779808044434,
    "longitude_deg": 156.70599365234375
  },
  "GEF": {
    "name": "Geva Airport",
    "latitude_deg": -7.5758299827575675,
    "longitude_deg": 156.5970001220703
  },
  "AGG": {
    "name": "Angoram Airport",
    "latitude_deg": -4.05583333333,
    "longitude_deg": 144.073888889
  },
  "AKS": {
    "name": "Gwaunaru'u Airport",
    "latitude_deg": -8.70257,
    "longitude_deg": 160.682007
  },
  "BNY": {
    "name": "Bellona/Anua Airport",
    "latitude_deg": -11.302222222200001,
    "longitude_deg": 159.798333333
  },
  "CHY": {
    "name": "Choiseul Bay Airport",
    "latitude_deg": -6.711944,
    "longitude_deg": 156.39611100000002
  },
  "BAS": {
    "name": "Ballalae Airport",
    "latitude_deg": -6.9907449999999995,
    "longitude_deg": 155.88665600000002
  },
  "FRE": {
    "name": "Fera/Maringe Airport",
    "latitude_deg": -8.1075,
    "longitude_deg": 159.576996
  },
  "HIR": {
    "name": "Honiara International Airport",
    "latitude_deg": -9.427999999999999,
    "longitude_deg": 160.054993
  },
  "MBU": {
    "name": "Babanakira Airport",
    "latitude_deg": -9.7475004196167,
    "longitude_deg": 159.83900451660156
  },
  "AVU": {
    "name": "Avu Avu Airport",
    "latitude_deg": -9.86833333333,
    "longitude_deg": 160.410555556
  },
  "IRA": {
    "name": "Ngorangora Airport",
    "latitude_deg": -10.4497003555,
    "longitude_deg": 161.897994995
  },
  "SCZ": {
    "name": "Santa Cruz/Graciosa Bay/Luova Airport",
    "latitude_deg": -10.72029972076416,
    "longitude_deg": 165.7949981689453
  },
  "MUA": {
    "name": "Munda Airport",
    "latitude_deg": -8.32797,
    "longitude_deg": 157.263
  },
  "GZO": {
    "name": "Nusatupe Airport",
    "latitude_deg": -8.09778022766,
    "longitude_deg": 156.863998413
  },
  "MNY": {
    "name": "Mono Airport",
    "latitude_deg": -7.416940212249756,
    "longitude_deg": 155.56500244140625
  },
  "PRS": {
    "name": "Parasi Airport",
    "latitude_deg": -9.64167022705078,
    "longitude_deg": 161.4250030517578
  },
  "OTV": {
    "name": "Ontong Java Atoll Airstrip",
    "latitude_deg": -5.515,
    "longitude_deg": 159.527778
  },
  "RNL": {
    "name": "Rennell/Tingoa Airport",
    "latitude_deg": -11.533900260925293,
    "longitude_deg": 160.06300354003906
  },
  "EGM": {
    "name": "Sege Airport",
    "latitude_deg": -8.578889846801758,
    "longitude_deg": 157.87600708007812
  },
  "NNB": {
    "name": "Santa Ana Airport",
    "latitude_deg": -10.847994,
    "longitude_deg": 162.45410800000002
  },
  "RUS": {
    "name": "Marau Airport",
    "latitude_deg": -9.86166954041,
    "longitude_deg": 160.824996948
  },
  "VAO": {
    "name": "Suavanao Airport",
    "latitude_deg": -7.585559844970702,
    "longitude_deg": 158.7310028076172
  },
  "XYA": {
    "name": "Yandina Airport",
    "latitude_deg": -9.092816000000001,
    "longitude_deg": 159.21841
  },
  "AGK": {
    "name": "Kagua Airport",
    "latitude_deg": -6.396388888890001,
    "longitude_deg": 143.853611111
  },
  "KGE": {
    "name": "Kaghau Airport",
    "latitude_deg": -7.3305,
    "longitude_deg": 157.585
  },
  "KUE": {
    "name": "Kukudu Airport",
    "latitude_deg": -8.0262,
    "longitude_deg": 156.94783
  },
  "KWS": {
    "name": "Kwailabesi Airport",
    "latitude_deg": -8.360508,
    "longitude_deg": 160.775127
  },
  "AGL": {
    "name": "Wanigela Airport",
    "latitude_deg": -9.3375,
    "longitude_deg": 149.155555556
  },
  "NAZ": {
    "name": "Nana Airport",
    "latitude_deg": -10.6758,
    "longitude_deg": 162.2049
  },
  "GTA": {
    "name": "Gatokae Aerodrome",
    "latitude_deg": -8.738358,
    "longitude_deg": 158.20283600000002
  },
  "RIN": {
    "name": "Ringi Cove Airport",
    "latitude_deg": -8.12639045715332,
    "longitude_deg": 157.14300537109375
  },
  "RBV": {
    "name": "Ramata Airport",
    "latitude_deg": -8.168060302734375,
    "longitude_deg": 157.64300537109375
  },
  "TLG": {
    "name": "Tulaghi Heliport",
    "latitude_deg": -9.107999999999999,
    "longitude_deg": 160.149166667
  },
  "AGY": {
    "name": "Argyle Downs Airport",
    "latitude_deg": -16.508604000000002,
    "longitude_deg": 128.92248500000002
  },
  "AHJ": {
    "name": "Hongyuan Airport",
    "latitude_deg": 32.53154,
    "longitude_deg": 102.35224000000001
  },
  "AHY": {
    "name": "Ambatolhy Airport",
    "latitude_deg": -20.015833333299998,
    "longitude_deg": 45.535
  },
  "AIE": {
    "name": "Aiome Airport",
    "latitude_deg": -5.145699978000001,
    "longitude_deg": 144.7307003
  },
  "AIH": {
    "name": "Aiambak Airport",
    "latitude_deg": -7.3427777777799985,
    "longitude_deg": 141.2675
  },
  "AIC": {
    "name": "Ailinglaplap Airok Airport",
    "latitude_deg": 7.279422,
    "longitude_deg": 168.8257
  },
  "CEX": {
    "name": "Chena Hot Springs Airport",
    "latitude_deg": 65.0518035889,
    "longitude_deg": -146.04699707
  },
  "SOL": {
    "name": "Solomon State Field",
    "latitude_deg": 64.5605,
    "longitude_deg": -164.4457
  },
  "HED": {
    "name": "Herendeen Bay Airport",
    "latitude_deg": 55.801399231000005,
    "longitude_deg": -160.899002075
  },
  "TWE": {
    "name": "Taylor Airport",
    "latitude_deg": 65.6792984009,
    "longitude_deg": -164.798995972
  },
  "KTH": {
    "name": "Tikchik Lodge Seaplane Base",
    "latitude_deg": 59.9631996155,
    "longitude_deg": -158.477005005
  },
  "NKI": {
    "name": "Naukati Bay Seaplane Base",
    "latitude_deg": 55.849602000000004,
    "longitude_deg": -133.227994
  },
  "LNI": {
    "name": "Point Lonely Short Range Radar Site Airfield",
    "latitude_deg": 70.911118,
    "longitude_deg": -153.237766
  },
  "CDL": {
    "name": "Candle 2 Airport",
    "latitude_deg": 65.907699585,
    "longitude_deg": -161.92599487299998
  },
  "AOS": {
    "name": "Amook Bay Seaplane Base",
    "latitude_deg": 57.4715003967,
    "longitude_deg": -153.815002441
  },
  "BSW": {
    "name": "Boswell Bay Airport",
    "latitude_deg": 60.4230995178,
    "longitude_deg": -146.145996094
  },
  "AKM": {
    "name": "Zakuoma Airport",
    "latitude_deg": 10.8902777778,
    "longitude_deg": 19.8172222222
  },
  "TGE": {
    "name": "Sharpe Field",
    "latitude_deg": 32.4919013977,
    "longitude_deg": -85.77559661869999
  },
  "ALZ": {
    "name": "Alitak Seaplane Base",
    "latitude_deg": 56.899501800500005,
    "longitude_deg": -154.248001099
  },
  "PPE": {
    "name": "Mar de Cort\u00e9s International Airport",
    "latitude_deg": 31.351987,
    "longitude_deg": -113.305177
  },
  "AME": {
    "name": "Alto Molocue Airport",
    "latitude_deg": -15.6102777778,
    "longitude_deg": 37.681388888899995
  },
  "AMF": {
    "name": "Ama Airport",
    "latitude_deg": -4.10111111111,
    "longitude_deg": 141.67
  },
  "AMG": {
    "name": "Amboin Airstrip",
    "latitude_deg": -4.605642,
    "longitude_deg": 143.485308
  },
  "AMU": {
    "name": "Amanab Airport",
    "latitude_deg": -3.5860000000000003,
    "longitude_deg": 141.21433333299998
  },
  "AMY": {
    "name": "Ambatomainty Airport",
    "latitude_deg": -17.686666666700003,
    "longitude_deg": 45.623888888900005
  },
  "INU": {
    "name": "Nauru International Airport",
    "latitude_deg": -0.547458,
    "longitude_deg": 166.919006
  },
  "ANZ": {
    "name": "Angus Downs Airport",
    "latitude_deg": -25.0325,
    "longitude_deg": 132.2748
  },
  "CTV": {
    "name": "Catoca Airport",
    "latitude_deg": -9.430985,
    "longitude_deg": 20.311478
  },
  "ANL": {
    "name": "Andulo Airport",
    "latitude_deg": -11.4723,
    "longitude_deg": 16.710898999999998
  },
  "CNZ": {
    "name": "Cangamba Airport",
    "latitude_deg": -13.7106,
    "longitude_deg": 19.861099
  },
  "DRC": {
    "name": "Dirico Airport",
    "latitude_deg": -17.981924057006836,
    "longitude_deg": 20.7680606842041
  },
  "GGC": {
    "name": "Lumbala Airport",
    "latitude_deg": -14.105106,
    "longitude_deg": 21.45083
  },
  "JMB": {
    "name": "Jamba Airport",
    "latitude_deg": -14.698192596435547,
    "longitude_deg": 16.070148468017578
  },
  "KNP": {
    "name": "Capanda Airport",
    "latitude_deg": -9.76937007904,
    "longitude_deg": 15.4553194046
  },
  "NDF": {
    "name": "N'dalatando Airport",
    "latitude_deg": -9.280378,
    "longitude_deg": 14.982432000000001
  },
  "AOA": {
    "name": "Aroa Airport",
    "latitude_deg": -9.0254,
    "longitude_deg": 146.8
  },
  "AOB": {
    "name": "Annanberg Airport",
    "latitude_deg": -4.90416666667,
    "longitude_deg": 144.635833333
  },
  "AOD": {
    "name": "Abou-De\u00efa Airport",
    "latitude_deg": 11.4773,
    "longitude_deg": 19.2874
  },
  "APP": {
    "name": "Asapa Airport",
    "latitude_deg": -8.979166666669999,
    "longitude_deg": 148.103611111
  },
  "APR": {
    "name": "April River Airport",
    "latitude_deg": -4.67666666667,
    "longitude_deg": 142.540138889
  },
  "QET": {
    "name": "Troll Airfield",
    "latitude_deg": -71.95714,
    "longitude_deg": 2.45257
  },
  "AQY": {
    "name": "Girdwood Airport",
    "latitude_deg": 60.968773999999996,
    "longitude_deg": -149.119792
  },
  "QRF": {
    "name": "Bragado Airport",
    "latitude_deg": -35.145811,
    "longitude_deg": -60.480293999999994
  },
  "CVI": {
    "name": "Caleta Olivia Airport",
    "latitude_deg": -46.37428,
    "longitude_deg": -67.59409000000001
  },
  "CNT": {
    "name": "Charata Airport",
    "latitude_deg": -27.2164,
    "longitude_deg": -61.2103
  },
  "VGS": {
    "name": "General Villegas Airport",
    "latitude_deg": -34.995728,
    "longitude_deg": -62.999725
  },
  "LMD": {
    "name": "Los Menucos Airport",
    "latitude_deg": -40.817699,
    "longitude_deg": -68.074699
  },
  "SZQ": {
    "name": "Saenz Pe\u00f1a Airport",
    "latitude_deg": -26.81579971313477,
    "longitude_deg": -60.44829940795898
  },
  "VCF": {
    "name": "Valcheta Airport",
    "latitude_deg": -40.7000007629,
    "longitude_deg": -66.1500015259
  },
  "NCJ": {
    "name": "Sunchales Aeroclub Airport",
    "latitude_deg": -30.9575,
    "longitude_deg": -61.5283
  },
  "CPG": {
    "name": "Carmen de Patagones Airport",
    "latitude_deg": -40.7781,
    "longitude_deg": -62.9803
  },
  "PRQ": {
    "name": "Termal Airport",
    "latitude_deg": -26.753611,
    "longitude_deg": -60.492222
  },
  "OLN": {
    "name": "Colonia Sarmiento Airport",
    "latitude_deg": -45.582371,
    "longitude_deg": -68.999841
  },
  "ARP": {
    "name": "Aragip Airport",
    "latitude_deg": -9.88333333333,
    "longitude_deg": 149.483333333
  },
  "ARX": {
    "name": "Aracati Drag\u00e3o do Mar Regional Airport",
    "latitude_deg": -4.568896,
    "longitude_deg": -37.805135
  },
  "ASZ": {
    "name": "Asirim Airport",
    "latitude_deg": -6.0097222222200015,
    "longitude_deg": 150.368611111
  },
  "ATN": {
    "name": "Namatanai Airport",
    "latitude_deg": -3.6695,
    "longitude_deg": 152.438
  },
  "ATP": {
    "name": "Aitape Airport",
    "latitude_deg": -3.14361111111,
    "longitude_deg": 142.346805556
  },
  "LYT": {
    "name": "Lady Elliot Island Airstrip",
    "latitude_deg": -24.1129,
    "longitude_deg": 152.7156
  },
  "AGW": {
    "name": "Agnew Airport",
    "latitude_deg": -12.145600318908693,
    "longitude_deg": 142.1490020751953
  },
  "AYD": {
    "name": "Alroy Downs Airport",
    "latitude_deg": -19.2908,
    "longitude_deg": 136.078995
  },
  "BYX": {
    "name": "Baniyala Airport",
    "latitude_deg": -13.19810009,
    "longitude_deg": 136.227005005
  },
  "COB": {
    "name": "Coolibah Airport",
    "latitude_deg": -15.548299789428713,
    "longitude_deg": 130.96200561523438
  },
  "CRJ": {
    "name": "Coorabie Airport",
    "latitude_deg": -31.894399642944336,
    "longitude_deg": 132.29600524902344
  },
  "CRY": {
    "name": "Carlton Hill Airport",
    "latitude_deg": -15.50189971923828,
    "longitude_deg": 128.53399658203122
  },
  "CSD": {
    "name": "Cresswell Downs Airport",
    "latitude_deg": -17.947999954223633,
    "longitude_deg": 135.91600036621094
  },
  "DYM": {
    "name": "Diamantina Lakes Airport",
    "latitude_deg": -23.761699676513672,
    "longitude_deg": 141.14500427246094
  },
  "HIS": {
    "name": "Hayman Island Resort Seaplane Base",
    "latitude_deg": -20.059999465942386,
    "longitude_deg": 148.88099670410156
  },
  "HLV": {
    "name": "Helenvale Airport",
    "latitude_deg": -15.685799598693848,
    "longitude_deg": 145.21499633789062
  },
  "KBD": {
    "name": "Kimberley Downs Airport",
    "latitude_deg": -17.39780044555664,
    "longitude_deg": 124.3550033569336
  },
  "KGR": {
    "name": "Kulgera Airport",
    "latitude_deg": -25.84280014038086,
    "longitude_deg": 133.29200744628906
  },
  "MYO": {
    "name": "Camballin Airport",
    "latitude_deg": -18.12470054626465,
    "longitude_deg": 124.27200317382812
  },
  "OKB": {
    "name": "Orchid Beach Airport",
    "latitude_deg": -24.959400177002,
    "longitude_deg": 153.31500244141
  },
  "PEP": {
    "name": "Peppimenarti Airport",
    "latitude_deg": -14.144200325,
    "longitude_deg": 130.09100341799999
  },
  "RDA": {
    "name": "Rockhampton Downs Airport",
    "latitude_deg": -18.95330047607422,
    "longitude_deg": 135.20100402832028
  },
  "SSK": {
    "name": "Sturt Creek Airport",
    "latitude_deg": -19.166400909423828,
    "longitude_deg": 128.17399597167972
  },
  "SWB": {
    "name": "Shaw River Airport",
    "latitude_deg": -21.510299682617188,
    "longitude_deg": 119.36199951171876
  },
  "TPR": {
    "name": "Tom Price Airport",
    "latitude_deg": -22.746000289900003,
    "longitude_deg": 117.869003296
  },
  "TWP": {
    "name": "Torwood Airport",
    "latitude_deg": -17.363300323486328,
    "longitude_deg": 143.75
  },
  "ZVG": {
    "name": "Springvale Airport",
    "latitude_deg": -17.78689956665039,
    "longitude_deg": 127.66999816894531
  },
  "AUI": {
    "name": "Aua Island Airport",
    "latitude_deg": -1.46055555556,
    "longitude_deg": 143.064722222
  },
  "AUJ": {
    "name": "Ambunti Airport",
    "latitude_deg": -4.21566666667,
    "longitude_deg": 142.823166667
  },
  "AUP": {
    "name": "Agaun Airport",
    "latitude_deg": -9.930833,
    "longitude_deg": 149.38566699999998
  },
  "AUV": {
    "name": "Aumo Airport",
    "latitude_deg": -5.731111111110001,
    "longitude_deg": 148.445277778
  },
  "AWE": {
    "name": "Alowe Airport",
    "latitude_deg": -0.545,
    "longitude_deg": 9.443999999999999
  },
  "AWR": {
    "name": "Awar Airport",
    "latitude_deg": -4.124,
    "longitude_deg": 144.85299999999998
  },
  "AXF": {
    "name": "Alxa Left Banner Bayanhot Airport",
    "latitude_deg": 38.74831,
    "longitude_deg": 105.58858000000001
  },
  "AXO": {
    "name": "Pantar Airport",
    "latitude_deg": -8.24638,
    "longitude_deg": 124.21971
  },
  "KPM": {
    "name": "Kompiam Airport",
    "latitude_deg": -5.381666666669999,
    "longitude_deg": 143.924722222
  },
  "BUA": {
    "name": "Buka Airport",
    "latitude_deg": -5.422319889068604,
    "longitude_deg": 154.67300415039062
  },
  "BRP": {
    "name": "Biaru Airport",
    "latitude_deg": -7.6693,
    "longitude_deg": 146.7594
  },
  "CMU": {
    "name": "Chimbu Airport",
    "latitude_deg": -6.024290084838867,
    "longitude_deg": 144.9709930419922
  },
  "MDM": {
    "name": "Munduku Airport",
    "latitude_deg": -4.6204,
    "longitude_deg": 143.4516
  },
  "KPF": {
    "name": "Kondobol Airport",
    "latitude_deg": -8.5336,
    "longitude_deg": 142.5049
  },
  "DNU": {
    "name": "Dinangat Airport",
    "latitude_deg": -6.1546,
    "longitude_deg": 146.6772
  },
  "DOI": {
    "name": "Doini Airport",
    "latitude_deg": -10.7009,
    "longitude_deg": 150.7218
  },
  "DAU": {
    "name": "Daru Airport",
    "latitude_deg": -9.086759567260001,
    "longitude_deg": 143.207992554
  },
  "EMS": {
    "name": "Embessa Airport",
    "latitude_deg": -9.447000000000001,
    "longitude_deg": 148.7628
  },
  "XYR": {
    "name": "Edwaki Airport",
    "latitude_deg": -3.883986,
    "longitude_deg": 141.792234
  },
  "EPT": {
    "name": "Eliptamin Airport",
    "latitude_deg": -5.0412,
    "longitude_deg": 141.6779
  },
  "EGA": {
    "name": "Engati Airstrip",
    "latitude_deg": -6.9179,
    "longitude_deg": 146.1053
  },
  "EMO": {
    "name": "Emo River Airstrip",
    "latitude_deg": -9.1234,
    "longitude_deg": 148.0415
  },
  "ERU": {
    "name": "Erume Airport",
    "latitude_deg": -8.2538,
    "longitude_deg": 146.9747
  },
  "MFZ": {
    "name": "Meselia Airport",
    "latitude_deg": -6.1364,
    "longitude_deg": 149.1183
  },
  "FRQ": {
    "name": "Feramin Airport",
    "latitude_deg": -5.207999999999999,
    "longitude_deg": 141.6988
  },
  "FAQ": {
    "name": "Frieda River Airport",
    "latitude_deg": -4.610468,
    "longitude_deg": 141.960138
  },
  "FUM": {
    "name": "Fuma Airport",
    "latitude_deg": -6.3933,
    "longitude_deg": 142.4408
  },
  "GKA": {
    "name": "Goroka Airport",
    "latitude_deg": -6.0816898345900015,
    "longitude_deg": 145.391998291
  },
  "GUG": {
    "name": "Guari Airport",
    "latitude_deg": -8.1286,
    "longitude_deg": 146.8722
  },
  "GRL": {
    "name": "Garasa Airport",
    "latitude_deg": -7.980713000000001,
    "longitude_deg": 147.21346100000002
  },
  "GUR": {
    "name": "Gurney Airport",
    "latitude_deg": -10.311499595599999,
    "longitude_deg": 150.333999634
  },
  "GAP": {
    "name": "Gusap Airport",
    "latitude_deg": -6.053196,
    "longitude_deg": 145.959047
  },
  "PNP": {
    "name": "Girua Airport",
    "latitude_deg": -8.80453968048,
    "longitude_deg": 148.309005737
  },
  "GBC": {
    "name": "Gasuke Airport",
    "latitude_deg": -6.1028,
    "longitude_deg": 141.7393
  },
  "HBD": {
    "name": "Habi Airport",
    "latitude_deg": -6.32,
    "longitude_deg": 142.4893
  },
  "HNI": {
    "name": "Heiweni Airport",
    "latitude_deg": -7.4223,
    "longitude_deg": 146.4276
  },
  "HNN": {
    "name": "Honinabi Airport",
    "latitude_deg": -6.2457,
    "longitude_deg": 142.1771
  },
  "HKN": {
    "name": "Hoskins Airport",
    "latitude_deg": -5.463846,
    "longitude_deg": 150.407327
  },
  "HIT": {
    "name": "Haivaro Airport",
    "latitude_deg": -6.9406,
    "longitude_deg": 143.059
  },
  "IMN": {
    "name": "Imane Airport",
    "latitude_deg": -6.7524,
    "longitude_deg": 146.1072
  },
  "KGM": {
    "name": "Kungim Airport",
    "latitude_deg": -5.671,
    "longitude_deg": 141.03
  },
  "IMD": {
    "name": "Imonda Airport",
    "latitude_deg": -3.3280000000000003,
    "longitude_deg": 141.1573
  },
  "KIE": {
    "name": "Aropa Airport",
    "latitude_deg": -6.305416999999999,
    "longitude_deg": 155.728139
  },
  "IAL": {
    "name": "Ialibu Airport",
    "latitude_deg": -6.2782,
    "longitude_deg": 143.9944
  },
  "WIU": {
    "name": "Witu Airport",
    "latitude_deg": -4.689522,
    "longitude_deg": 149.440112
  },
  "KGH": {
    "name": "Yongai Airport",
    "latitude_deg": -8.5289,
    "longitude_deg": 147.4603
  },
  "LSA": {
    "name": "Losuia Airport",
    "latitude_deg": -8.505820274353027,
    "longitude_deg": 151.08099365234375
  },
  "KPA": {
    "name": "Kopiago Airport",
    "latitude_deg": -5.3883,
    "longitude_deg": 142.4977
  },
  "UNG": {
    "name": "Kiunga Airport",
    "latitude_deg": -6.1257100105285645,
    "longitude_deg": 141.28199768066406
  },
  "KNE": {
    "name": "Kanainj Airport",
    "latitude_deg": -5.2903,
    "longitude_deg": 144.7072
  },
  "KRI": {
    "name": "Kikori Airport",
    "latitude_deg": -7.424379825592041,
    "longitude_deg": 144.2500762939453
  },
  "KMA": {
    "name": "Kerema Airport",
    "latitude_deg": -7.96361017227,
    "longitude_deg": 145.770996094
  },
  "KRX": {
    "name": "Kar Kar Airport",
    "latitude_deg": -4.5569999999999995,
    "longitude_deg": 145.9404
  },
  "KUQ": {
    "name": "Kuri Airport",
    "latitude_deg": -7.135083,
    "longitude_deg": 143.27611100000001
  },
  "KVG": {
    "name": "Kavieng Airport",
    "latitude_deg": -2.57940006256,
    "longitude_deg": 150.807998657
  },
  "LNV": {
    "name": "Londolovit Airport",
    "latitude_deg": -3.04361009598,
    "longitude_deg": 152.628997803
  },
  "LAB": {
    "name": "Lab Lab Airport",
    "latitude_deg": -5.7204,
    "longitude_deg": 148.0566
  },
  "LWI": {
    "name": "Lowai Airport",
    "latitude_deg": -6.3344,
    "longitude_deg": 146.6458
  },
  "LPN": {
    "name": "Leron Plains Airport",
    "latitude_deg": -6.3917,
    "longitude_deg": 146.3434
  },
  "LNG": {
    "name": "Lese Airport",
    "latitude_deg": -8.2799,
    "longitude_deg": 146.2765
  },
  "LSJ": {
    "name": "Long Island Airport",
    "latitude_deg": -5.3604,
    "longitude_deg": 147.0177
  },
  "AYM": {
    "name": "Yas Island Seaplane Base",
    "latitude_deg": 24.467,
    "longitude_deg": 54.6103
  },
  "MRM": {
    "name": "Manari Airport",
    "latitude_deg": -9.1908,
    "longitude_deg": 147.6219
  },
  "OBM": {
    "name": "Morobe Airport",
    "latitude_deg": -7.74,
    "longitude_deg": 147.59
  },
  "MAG": {
    "name": "Madang Airport",
    "latitude_deg": -5.20707988739,
    "longitude_deg": 145.789001465
  },
  "HGU": {
    "name": "Mount Hagen Kagamuga Airport",
    "latitude_deg": -5.826789855957031,
    "longitude_deg": 144.29600524902344
  },
  "GUV": {
    "name": "Mougulu Airport",
    "latitude_deg": -6.2808589999999995,
    "longitude_deg": 142.420775
  },
  "MDU": {
    "name": "Mendi Airport",
    "latitude_deg": -6.14774,
    "longitude_deg": 143.656998
  },
  "MAS": {
    "name": "Momote Airport",
    "latitude_deg": -2.06189,
    "longitude_deg": 147.423996
  },
  "MXH": {
    "name": "Moro Airport",
    "latitude_deg": -6.36332988739,
    "longitude_deg": 143.238006592
  },
  "MIS": {
    "name": "Misima Island Airport",
    "latitude_deg": -10.6892004013,
    "longitude_deg": 152.837997437
  },
  "MWG": {
    "name": "Marawaka Airport",
    "latitude_deg": -6.9736,
    "longitude_deg": 145.8849
  },
  "NKN": {
    "name": "Nankina Airport",
    "latitude_deg": -5.837000000000001,
    "longitude_deg": 146.4533
  },
  "GBF": {
    "name": "Negarbo(Negabo) Airport",
    "latitude_deg": -6.567778,
    "longitude_deg": 144.703058
  },
  "MFO": {
    "name": "Manguna Airport",
    "latitude_deg": -5.5777779999999995,
    "longitude_deg": 151.792333
  },
  "KSB": {
    "name": "Kasonombe Airport",
    "latitude_deg": -6.3819,
    "longitude_deg": 146.9859
  },
  "NMN": {
    "name": "Nomane Airport",
    "latitude_deg": -6.32183,
    "longitude_deg": 145.070667
  },
  "NBA": {
    "name": "Nambaiyufa Airport",
    "latitude_deg": -6.2412,
    "longitude_deg": 145.2424
  },
  "LAE": {
    "name": "Nadzab Airport",
    "latitude_deg": -6.569803,
    "longitude_deg": 146.725977
  },
  "KGB": {
    "name": "Konge Airport",
    "latitude_deg": -6.2239,
    "longitude_deg": 147.2152
  },
  "OKP": {
    "name": "Oksapmin Airport",
    "latitude_deg": -5.2261,
    "longitude_deg": 142.2259
  },
  "HOC": {
    "name": "Komako Airport",
    "latitude_deg": -7.3984,
    "longitude_deg": 145.8827
  },
  "KCJ": {
    "name": "Komaio Airport",
    "latitude_deg": -7.2714,
    "longitude_deg": 143.5952
  },
  "KDE": {
    "name": "Koroba Airport",
    "latitude_deg": -5.6952,
    "longitude_deg": 142.7441
  },
  "OPB": {
    "name": "Open Bay Airport",
    "latitude_deg": -4.794727,
    "longitude_deg": 151.696195
  },
  "PGB": {
    "name": "Pangoa Airport",
    "latitude_deg": -7.0226,
    "longitude_deg": 141.5605
  },
  "PGN": {
    "name": "Pangia Airport",
    "latitude_deg": -6.386,
    "longitude_deg": 144.1084
  },
  "MPF": {
    "name": "Mapoda Airport",
    "latitude_deg": -7.979,
    "longitude_deg": 143.1694
  },
  "PMN": {
    "name": "Pumani Airport",
    "latitude_deg": -9.7469,
    "longitude_deg": 149.4766
  },
  "POM": {
    "name": "Port Moresby Jacksons International Airport",
    "latitude_deg": -9.443380355834961,
    "longitude_deg": 147.22000122070312
  },
  "SPH": {
    "name": "Sopu Airport",
    "latitude_deg": -8.3038,
    "longitude_deg": 147.1659
  },
  "SXA": {
    "name": "Sialum Airport",
    "latitude_deg": -6.0908,
    "longitude_deg": 147.5955
  },
  "RMN": {
    "name": "Rumginae Airport",
    "latitude_deg": -5.89722222222,
    "longitude_deg": 141.271666667
  },
  "KMR": {
    "name": "Karimui Airport",
    "latitude_deg": -6.4921,
    "longitude_deg": 144.82299999999998
  },
  "MWI": {
    "name": "Maramuni Airport",
    "latitude_deg": -5.13,
    "longitude_deg": 143.4829
  },
  "MRH": {
    "name": "May River Airstrip",
    "latitude_deg": -4.3615,
    "longitude_deg": 141.785
  },
  "SBE": {
    "name": "Suabi Airport",
    "latitude_deg": -6.10444444444,
    "longitude_deg": 142.278333333
  },
  "NIS": {
    "name": "Simberi Airport",
    "latitude_deg": -2.66222222222,
    "longitude_deg": 151.997777778
  },
  "SIL": {
    "name": "Sila Airport",
    "latitude_deg": -9.07355555556,
    "longitude_deg": 148.38925
  },
  "SBV": {
    "name": "Sabah Airport",
    "latitude_deg": -5.5765,
    "longitude_deg": 155.0489
  },
  "SIM": {
    "name": "Simbai Airport",
    "latitude_deg": -5.278611111110001,
    "longitude_deg": 144.54472222200002
  },
  "SBC": {
    "name": "Selbang Airport",
    "latitude_deg": -5.315,
    "longitude_deg": 141.752
  },
  "SPV": {
    "name": "Sepik Plains Airport",
    "latitude_deg": -3.8821,
    "longitude_deg": 143.6734
  },
  "SXW": {
    "name": "Sauren Airport",
    "latitude_deg": -5.9701,
    "longitude_deg": 148.8543
  },
  "MBV": {
    "name": "Masa Airport",
    "latitude_deg": -6.345,
    "longitude_deg": 147.591
  },
  "TIZ": {
    "name": "Tari Airport",
    "latitude_deg": -5.84499979019,
    "longitude_deg": 142.947998047
  },
  "TBG": {
    "name": "Tabubil Airport",
    "latitude_deg": -5.27861,
    "longitude_deg": 141.225998
  },
  "TPI": {
    "name": "Tapini Airport",
    "latitude_deg": -8.35666666667,
    "longitude_deg": 146.989166667
  },
  "RAB": {
    "name": "Tokua Airport",
    "latitude_deg": -4.34046,
    "longitude_deg": 152.380005
  },
  "TKW": {
    "name": "Tekin Airport",
    "latitude_deg": -5.24366666667,
    "longitude_deg": 142.165194444
  },
  "TEP": {
    "name": "Tep Tep Airport",
    "latitude_deg": -5.9553,
    "longitude_deg": 146.5595
  },
  "TSW": {
    "name": "Tsewi Airport",
    "latitude_deg": -7.0695,
    "longitude_deg": 146.1272
  },
  "TRJ": {
    "name": "Tarakbits Airport",
    "latitude_deg": -5.614,
    "longitude_deg": 141.0421
  },
  "TWY": {
    "name": "Tawa Airport",
    "latitude_deg": -7.4463,
    "longitude_deg": 146.1067
  },
  "TKB": {
    "name": "Tekadu Airport",
    "latitude_deg": -7.6808,
    "longitude_deg": 146.5503
  },
  "AYU": {
    "name": "Aiyura Airport",
    "latitude_deg": -6.3380555555599996,
    "longitude_deg": 145.904166667
  },
  "UMC": {
    "name": "Umba Airport",
    "latitude_deg": -7.0214,
    "longitude_deg": 145.966
  },
  "URU": {
    "name": "Uroubi Airport",
    "latitude_deg": -9.5162,
    "longitude_deg": 148.5591
  },
  "UPR": {
    "name": "Upiara Airport",
    "latitude_deg": -8.5411,
    "longitude_deg": 142.6503
  },
  "UVO": {
    "name": "Uvol Airport",
    "latitude_deg": -6.0178,
    "longitude_deg": 150.9557
  },
  "TLW": {
    "name": "Talasea Airport",
    "latitude_deg": -5.2726,
    "longitude_deg": 150.0089
  },
  "TCJ": {
    "name": "Torembi Airport",
    "latitude_deg": -4.0165,
    "longitude_deg": 143.1329
  },
  "VAI": {
    "name": "Vanimo Airport",
    "latitude_deg": -2.6926,
    "longitude_deg": 141.3028
  },
  "TON": {
    "name": "Tonu Airport",
    "latitude_deg": -6.6552,
    "longitude_deg": 155.4326
  },
  "WAO": {
    "name": "Wabo Airport",
    "latitude_deg": -6.989444444439999,
    "longitude_deg": 145.075111111
  },
  "WBM": {
    "name": "Wapenamanda Airport",
    "latitude_deg": -5.6433,
    "longitude_deg": 143.895004
  },
  "WAJ": {
    "name": "Wawoi Falls Airport",
    "latitude_deg": -6.9523,
    "longitude_deg": 142.6557
  },
  "WWK": {
    "name": "Wewak International Airport",
    "latitude_deg": -3.5838301181800003,
    "longitude_deg": 143.66900634799998
  },
  "WOA": {
    "name": "Wonenara Airport",
    "latitude_deg": -6.796861111110001,
    "longitude_deg": 145.891944444
  },
  "WKN": {
    "name": "Wakunai Airport",
    "latitude_deg": -5.8603,
    "longitude_deg": 155.2223
  },
  "WSU": {
    "name": "Wasu Airport",
    "latitude_deg": -5.961709449190001,
    "longitude_deg": 147.19822526
  },
  "WTP": {
    "name": "Woitape Airport",
    "latitude_deg": -8.54583333333,
    "longitude_deg": 147.2525
  },
  "WUG": {
    "name": "Wau Airport",
    "latitude_deg": -7.345556,
    "longitude_deg": 146.718611
  },
  "YVD": {
    "name": "Yeva Airport",
    "latitude_deg": -7.547999999999999,
    "longitude_deg": 146.188
  },
  "SMJ": {
    "name": "Sim Airport",
    "latitude_deg": -7.75,
    "longitude_deg": 146.9273
  },
  "WEP": {
    "name": "Weam Airport",
    "latitude_deg": -8.6184,
    "longitude_deg": 141.1381
  },
  "AYY": {
    "name": "Arugam Bay SPB",
    "latitude_deg": 6.86,
    "longitude_deg": 81.82388888890002
  },
  "KYX": {
    "name": "Yalumet Airport",
    "latitude_deg": -6.09,
    "longitude_deg": 147.0117
  },
  "KSX": {
    "name": "Yasuru Airport",
    "latitude_deg": -6.6015,
    "longitude_deg": 146.1813
  },
  "AYZ": {
    "name": "Zahn's Airport",
    "latitude_deg": 40.71,
    "longitude_deg": -73.4
  },
  "WUM": {
    "name": "Wasum Airport",
    "latitude_deg": -6.0491,
    "longitude_deg": 149.33700000000002
  },
  "ZXT": {
    "name": "Zabrat Airport",
    "latitude_deg": 40.4955422161,
    "longitude_deg": 49.9768066406
  },
  "FZL": {
    "name": "Fizuli Airport",
    "latitude_deg": 39.594578000000006,
    "longitude_deg": 47.196128
  },
  "HAE": {
    "name": "Lava Falls Heliport",
    "latitude_deg": 36.1916007996,
    "longitude_deg": -113.092002869
  },
  "AZB": {
    "name": "Amazon Bay Airport",
    "latitude_deg": -10.2991666667,
    "longitude_deg": 149.33833333299998
  },
  "AZJ": {
    "name": "Zhenjiang Dalu Airport",
    "latitude_deg": 32.23649,
    "longitude_deg": 119.71868300000001
  },
  "BAJ": {
    "name": "Bali Airport",
    "latitude_deg": -4.88333333333,
    "longitude_deg": 149.133333333
  },
  "BAP": {
    "name": "Baibara Airport",
    "latitude_deg": -10.3432,
    "longitude_deg": 149.6414
  },
  "BCJ": {
    "name": "Baca Grande Airfield",
    "latitude_deg": 37.9647777778,
    "longitude_deg": -105.776666667
  },
  "BCP": {
    "name": "Bambu Airport",
    "latitude_deg": -5.863611111110001,
    "longitude_deg": 146.4925
  },
  "BCW": {
    "name": "Benguera Island Airport",
    "latitude_deg": -21.85330009460449,
    "longitude_deg": 35.43830108642578
  },
  "BCZ": {
    "name": "Milyakburra Airport",
    "latitude_deg": -13.780833333299999,
    "longitude_deg": 136.201666667
  },
  "ILL": {
    "name": "Willmar Municipal Airport John L Rice Field (2006)",
    "latitude_deg": 45.117552,
    "longitude_deg": -95.13225899999999
  },
  "BDZ": {
    "name": "Baindoung Airport",
    "latitude_deg": -6.34722222222,
    "longitude_deg": 146.942222222
  },
  "BEA": {
    "name": "Bereina Airport",
    "latitude_deg": -8.64,
    "longitude_deg": 146.5083
  },
  "HKV": {
    "name": "Malevo Airport",
    "latitude_deg": 41.871799469,
    "longitude_deg": 25.6047992706
  },
  "JAM": {
    "name": "Bezmer Air Base",
    "latitude_deg": 42.4548988342,
    "longitude_deg": 26.352199554400002
  },
  "JEG": {
    "name": "Aasiaat Airport",
    "latitude_deg": 68.721802,
    "longitude_deg": -52.784698
  },
  "AOQ": {
    "name": "Aappilattoq (Qaasuitsup) Heliport",
    "latitude_deg": 72.88703000000001,
    "longitude_deg": -55.596287
  },
  "AGM": {
    "name": "Tasiilaq Heliport",
    "latitude_deg": 65.612296,
    "longitude_deg": -37.618334999999995
  },
  "QGQ": {
    "name": "Attu Heliport",
    "latitude_deg": 67.9406628551,
    "longitude_deg": -53.6218696833
  },
  "UAK": {
    "name": "Narsarsuaq Airport",
    "latitude_deg": 61.1605,
    "longitude_deg": -45.425999
  },
  "JCH": {
    "name": "Qasigiannguit Heliport",
    "latitude_deg": 68.822815547,
    "longitude_deg": -51.1734473705
  },
  "CNP": {
    "name": "Neerlerit Inaat Airport",
    "latitude_deg": 70.7431030273,
    "longitude_deg": -22.650499343899998
  },
  "DUN": {
    "name": "Dundas Airport",
    "latitude_deg": 76.525,
    "longitude_deg": -68.8
  },
  "QFG": {
    "name": "Eqalugaarsuit Heliport",
    "latitude_deg": 60.619719653599994,
    "longitude_deg": -45.9140619636
  },
  "GOH": {
    "name": "Godthaab / Nuuk Airport",
    "latitude_deg": 64.190903,
    "longitude_deg": -51.678101
  },
  "JGO": {
    "name": "Qeqertarsuaq Heliport",
    "latitude_deg": 69.251181993,
    "longitude_deg": -53.5148763657
  },
  "QFI": {
    "name": "Iginniarfik",
    "latitude_deg": 68.14722558609999,
    "longitude_deg": -53.1735277176
  },
  "QRY": {
    "name": "Ikerassaarsuk Heliport",
    "latitude_deg": 68.14088100629999,
    "longitude_deg": -53.4414589405
  },
  "XIQ": {
    "name": "Ilimanaq Heliport",
    "latitude_deg": 69.0809150007,
    "longitude_deg": -51.114315390600005
  },
  "IUI": {
    "name": "Innarsuit Heliport",
    "latitude_deg": 73.199895,
    "longitude_deg": -56.010817
  },
  "IOQ": {
    "name": "Isortoq Heliport",
    "latitude_deg": 65.547792,
    "longitude_deg": -38.976552000000005
  },
  "QJI": {
    "name": "Ikamiut Heliport",
    "latitude_deg": 68.6342530984,
    "longitude_deg": -51.8322622776
  },
  "JJU": {
    "name": "Qaqortoq Heliport",
    "latitude_deg": 60.715684155299996,
    "longitude_deg": -46.0299186409
  },
  "JAV": {
    "name": "Ilulissat Airport",
    "latitude_deg": 69.243202,
    "longitude_deg": -51.057097999999996
  },
  "QPW": {
    "name": "Kangaatsiaq Heliport",
    "latitude_deg": 68.3126574861,
    "longitude_deg": -53.46020758149999
  },
  "KUS": {
    "name": "Kulusuk Airport",
    "latitude_deg": 65.573601,
    "longitude_deg": -37.1236
  },
  "KUZ": {
    "name": "Kuummiut Heliport",
    "latitude_deg": 65.863935,
    "longitude_deg": -36.997919
  },
  "KHQ": {
    "name": "Kullorsuaq Heliport",
    "latitude_deg": 74.57805,
    "longitude_deg": -57.226828000000005
  },
  "KGQ": {
    "name": "Kangersuatsiaq Heliport",
    "latitude_deg": 72.38109200000001,
    "longitude_deg": -55.536586
  },
  "QJE": {
    "name": "Kitsissuarsuit Heliport",
    "latitude_deg": 68.85792599759999,
    "longitude_deg": -53.1232953072
  },
  "JSU": {
    "name": "Maniitsoq Airport",
    "latitude_deg": 65.412498,
    "longitude_deg": -52.9394
  },
  "JNN": {
    "name": "Nanortalik Heliport",
    "latitude_deg": 60.1418839759,
    "longitude_deg": -45.232976675
  },
  "JNS": {
    "name": "Narsaq Heliport",
    "latitude_deg": 60.9172827256,
    "longitude_deg": -46.059923172
  },
  "NIQ": {
    "name": "Niaqornat Heliport",
    "latitude_deg": 70.789385,
    "longitude_deg": -53.66294499999999
  },
  "NSQ": {
    "name": "Nuussuaq Heliport",
    "latitude_deg": 74.109853,
    "longitude_deg": -57.065037
  },
  "BGP": {
    "name": "Bongo Airport",
    "latitude_deg": -2.1713,
    "longitude_deg": 10.2088
  },
  "JFR": {
    "name": "Paamiut Airport",
    "latitude_deg": 62.014736175500005,
    "longitude_deg": -49.6709365845
  },
  "QQT": {
    "name": "Qeqertaq Heliport",
    "latitude_deg": 69.9958611087,
    "longitude_deg": -51.3009166718
  },
  "NAQ": {
    "name": "Qaanaaq Airport",
    "latitude_deg": 77.4886016846,
    "longitude_deg": -69.3887023926
  },
  "OBY": {
    "name": "Ittoqqortoormiit Heliport",
    "latitude_deg": 70.4882288244,
    "longitude_deg": -21.971679925900002
  },
  "SFJ": {
    "name": "Kangerlussuaq Airport",
    "latitude_deg": 67.012222,
    "longitude_deg": -50.711603000000004
  },
  "SRK": {
    "name": "Siorapaluk Heliport",
    "latitude_deg": 77.786517,
    "longitude_deg": -70.638657
  },
  "QOQ": {
    "name": "Saarloq Heliport",
    "latitude_deg": 60.537778,
    "longitude_deg": -46.024722
  },
  "JHS": {
    "name": "Sisimiut Airport",
    "latitude_deg": 66.951302,
    "longitude_deg": -53.729301
  },
  "SVR": {
    "name": "Savissivik Heliport",
    "latitude_deg": 76.018613,
    "longitude_deg": -65.117683
  },
  "TQA": {
    "name": "Tasiusaq (Qaasuitsup) Heliport",
    "latitude_deg": 73.37305500000001,
    "longitude_deg": -56.060280000000006
  },
  "THU": {
    "name": "Thule Air Base",
    "latitude_deg": 76.5311965942,
    "longitude_deg": -68.70320129390001
  },
  "TQI": {
    "name": "Tiniteqilaaq Heliport",
    "latitude_deg": 65.892027,
    "longitude_deg": -37.783409000000006
  },
  "JUV": {
    "name": "Upernavik Airport",
    "latitude_deg": 72.79019927979999,
    "longitude_deg": -56.130599975600006
  },
  "UMD": {
    "name": "Uummannaq Heliport",
    "latitude_deg": 70.6804279261,
    "longitude_deg": -52.111630439799995
  },
  "JQA": {
    "name": "Qaarsut Airport",
    "latitude_deg": 70.7341995239,
    "longitude_deg": -52.696201324499995
  },
  "JUK": {
    "name": "Ukkusissat Heliport",
    "latitude_deg": 71.049438,
    "longitude_deg": -51.890015999999996
  },
  "BHL": {
    "name": "Bah\u00eda de los \u00c1ngeles Airport",
    "latitude_deg": 28.9786,
    "longitude_deg": -113.560997
  },
  "BHT": {
    "name": "Brighton Downs Airport",
    "latitude_deg": -23.3638888889,
    "longitude_deg": 141.562777778
  },
  "AEY": {
    "name": "Akureyri Airport",
    "latitude_deg": 65.66000366210939,
    "longitude_deg": -18.07270050048828
  },
  "BIU": {
    "name": "Bildudalur Airport",
    "latitude_deg": 65.64129638671875,
    "longitude_deg": -23.546199798583984
  },
  "BGJ": {
    "name": "Borgarfj\u00f6r\u00f0ur eystri Airport",
    "latitude_deg": 65.51640319824219,
    "longitude_deg": -13.80500030517578
  },
  "BJD": {
    "name": "Bakkafj\u00f6r\u00f0ur Airport",
    "latitude_deg": 66.02189636230469,
    "longitude_deg": -14.824399948120115
  },
  "BLO": {
    "name": "Hjaltabakki Airport",
    "latitude_deg": 65.64499664306639,
    "longitude_deg": -20.287500381469727
  },
  "BQD": {
    "name": "B\u00fa\u00f0ardalur Airport",
    "latitude_deg": 65.07530212402344,
    "longitude_deg": -21.80030059814453
  },
  "BXV": {
    "name": "Brei\u00f0dalsv\u00edk Airport",
    "latitude_deg": 64.790037,
    "longitude_deg": -14.043926999999998
  },
  "DJU": {
    "name": "Dj\u00fapivogur Airport",
    "latitude_deg": 64.642372,
    "longitude_deg": -14.277297
  },
  "EGS": {
    "name": "Egilssta\u00f0ir Airport",
    "latitude_deg": 65.28330230712889,
    "longitude_deg": -14.401399612426758
  },
  "FAS": {
    "name": "F\u00e1skr\u00fa\u00f0sfj\u00f6r\u00f0ur Airport",
    "latitude_deg": 64.93145600000001,
    "longitude_deg": -14.047957
  },
  "FAG": {
    "name": "Fagurh\u00f3lsm\u00fdri Airport",
    "latitude_deg": 63.87469863891602,
    "longitude_deg": -16.64109992980957
  },
  "GUU": {
    "name": "Grundarfj\u00f6r\u00f0ur Airport",
    "latitude_deg": 64.99140167236328,
    "longitude_deg": -23.22470092773437
  },
  "GJR": {
    "name": "Gj\u00f6gur Airport",
    "latitude_deg": 65.99530029296875,
    "longitude_deg": -21.326900482177734
  },
  "GRY": {
    "name": "Gr\u00edmsey Airport",
    "latitude_deg": 66.5458,
    "longitude_deg": -18.0173
  },
  "HVK": {
    "name": "H\u00f3lmav\u00edk Airport",
    "latitude_deg": 65.70469665527344,
    "longitude_deg": -21.696399688720703
  },
  "HFN": {
    "name": "Hornafj\u00f6r\u00f0ur Airport",
    "latitude_deg": 64.295601,
    "longitude_deg": -15.2272
  },
  "FLI": {
    "name": "Holt Airport",
    "latitude_deg": 66.0141804294,
    "longitude_deg": -23.4416913986
  },
  "HZK": {
    "name": "H\u00fasav\u00edk Airport",
    "latitude_deg": 65.952301,
    "longitude_deg": -17.426001
  },
  "HVM": {
    "name": "Kr\u00f3ksta\u00f0armelar Airport",
    "latitude_deg": 65.26640319824219,
    "longitude_deg": -20.846900939941406
  },
  "HLO": {
    "name": "Ingjaldssan\u00f0ur Airport",
    "latitude_deg": 66.05000305175781,
    "longitude_deg": -23.69610023498535
  },
  "IFJ": {
    "name": "\u00cdsafj\u00f6r\u00f0ur Airport",
    "latitude_deg": 66.05809783935547,
    "longitude_deg": -23.13529968261719
  },
  "BIJ": {
    "name": "Biliau Airport",
    "latitude_deg": -5.577999999999999,
    "longitude_deg": 146.339
  },
  "KEF": {
    "name": "Keflavik International Airport",
    "latitude_deg": 63.985001000000004,
    "longitude_deg": -22.6056
  },
  "OPA": {
    "name": "K\u00f3pasker Airport",
    "latitude_deg": 66.31079864501953,
    "longitude_deg": -16.466699600219727
  },
  "SAK": {
    "name": "Sau\u00f0\u00e1rkr\u00f3kur Airport",
    "latitude_deg": 65.73169708249999,
    "longitude_deg": -19.5727996826
  },
  "NOR": {
    "name": "Nor\u00f0fj\u00f6r\u00f0ur Airport",
    "latitude_deg": 65.13189697265625,
    "longitude_deg": -13.746399879455565
  },
  "OFJ": {
    "name": "\u00d3lafsfj\u00f6r\u00f0ur Airport",
    "latitude_deg": 66.08329772949219,
    "longitude_deg": -18.66670036315918
  },
  "PFJ": {
    "name": "Patreksfj\u00f6r\u00f0ur Airport",
    "latitude_deg": 65.555801,
    "longitude_deg": -23.965
  },
  "RHA": {
    "name": "Reykh\u00f3lar Airport",
    "latitude_deg": 65.45262908935547,
    "longitude_deg": -22.20611572265625
  },
  "OLI": {
    "name": "Rif Airport",
    "latitude_deg": 64.9113998413,
    "longitude_deg": -23.8230991364
  },
  "RFN": {
    "name": "Raufarh\u00f6fn Airport",
    "latitude_deg": 66.40640258789061,
    "longitude_deg": -15.918299674987793
  },
  "RKV": {
    "name": "Reykjavik Airport",
    "latitude_deg": 64.1299972534,
    "longitude_deg": -21.9405994415
  },
  "MVA": {
    "name": "Reykjahl\u00ed\u00f0 Airport",
    "latitude_deg": 65.65579986572266,
    "longitude_deg": -16.918100357055664
  },
  "SIJ": {
    "name": "Siglufj\u00f6r\u00f0ur Airport",
    "latitude_deg": 66.137847,
    "longitude_deg": -18.908157
  },
  "SYK": {
    "name": "Stykkish\u00f3lmur Airport",
    "latitude_deg": 65.05809783935547,
    "longitude_deg": -22.7942008972168
  },
  "TEY": {
    "name": "\u00deingeyri Airport",
    "latitude_deg": 65.87030029296875,
    "longitude_deg": -23.559999465942386
  },
  "THO": {
    "name": "\u00de\u00f3rsh\u00f6fn Airport",
    "latitude_deg": 66.218498,
    "longitude_deg": -15.3356
  },
  "VEY": {
    "name": "Vestmannaeyjar Airport",
    "latitude_deg": 63.42430114746094,
    "longitude_deg": -20.27890014648437
  },
  "VPN": {
    "name": "Vopnafj\u00f6r\u00f0ur Airport",
    "latitude_deg": 65.72059631347656,
    "longitude_deg": -14.850600242614744
  },
  "BIZ": {
    "name": "Bimin Airport",
    "latitude_deg": -5.28611111111,
    "longitude_deg": 142.033055556
  },
  "BJE": {
    "name": "Baleela Airport",
    "latitude_deg": 11.199444444400001,
    "longitude_deg": 28.5230555556
  },
  "BJQ": {
    "name": "Bahja Airport",
    "latitude_deg": 19.8730555556,
    "longitude_deg": 56.067777777799996
  },
  "BJT": {
    "name": "Bentota River Waterdrome",
    "latitude_deg": 6.431,
    "longitude_deg": 79.99600000000001
  },
  "PRN": {
    "name": "Pri\u0161tina Adem Jashari International Airport",
    "latitude_deg": 42.5728,
    "longitude_deg": 21.035801
  },
  "BMH": {
    "name": "Bomai Airport",
    "latitude_deg": -6.3731666666699995,
    "longitude_deg": 144.637
  },
  "BMQ": {
    "name": "Bamburi Airport",
    "latitude_deg": -3.9833629999999998,
    "longitude_deg": 39.730982
  },
  "BMZ": {
    "name": "Bamu Airport",
    "latitude_deg": -7.8485,
    "longitude_deg": 143.2433
  },
  "BNF": {
    "name": "Baranof Warm Springs Float and Seaplane Base",
    "latitude_deg": 57.088799,
    "longitude_deg": -134.833146
  },
  "BNM": {
    "name": "Bodinumu Airport",
    "latitude_deg": -9.107777777779999,
    "longitude_deg": 147.666722222
  },
  "BNQ": {
    "name": "Baganga airport",
    "latitude_deg": 7.6119444444400015,
    "longitude_deg": 126.568888889
  },
  "BNT": {
    "name": "Bundi Airport",
    "latitude_deg": -5.7422222222200014,
    "longitude_deg": 145.2275
  },
  "BNV": {
    "name": "Boana Airport",
    "latitude_deg": -6.433,
    "longitude_deg": 146.825
  },
  "BNZ": {
    "name": "Banz Airport",
    "latitude_deg": -5.807,
    "longitude_deg": 144.623
  },
  "RBQ": {
    "name": "Rurenabaque Airport",
    "latitude_deg": -14.4279003143,
    "longitude_deg": -67.4968032837
  },
  "BVL": {
    "name": "Baures Airport",
    "latitude_deg": -13.5833330154,
    "longitude_deg": -63.5833320618
  },
  "BOF": {
    "name": "Bolling Air Force Base",
    "latitude_deg": 38.854048999999996,
    "longitude_deg": -77.012046
  },
  "BOK": {
    "name": "Brookings Airport",
    "latitude_deg": 42.0746,
    "longitude_deg": -124.290001
  },
  "BOQ": {
    "name": "Boku Airport",
    "latitude_deg": -6.5427,
    "longitude_deg": 155.3419
  },
  "BOT": {
    "name": "Bosset Airport",
    "latitude_deg": -7.2372570000000005,
    "longitude_deg": 141.1063222
  },
  "BOV": {
    "name": "Boang Airport",
    "latitude_deg": -3.3834,
    "longitude_deg": 153.2812
  },
  "BPF": {
    "name": "Batuna Aerodrome",
    "latitude_deg": -8.56202777778,
    "longitude_deg": 158.119305556
  },
  "BQV": {
    "name": "Bartlett Cove Seaplane Base",
    "latitude_deg": 58.455200195299994,
    "longitude_deg": -135.88499450700002
  },
  "TUZ": {
    "name": "Tucum\u00e3 Airport",
    "latitude_deg": -6.7488,
    "longitude_deg": -51.1478
  },
  "VDC": {
    "name": "Glauber de Andrade Rocha Airport",
    "latitude_deg": -14.907885,
    "longitude_deg": -40.914804
  },
  "ALT": {
    "name": "Alenquer Municipal Airport",
    "latitude_deg": -1.9169999999999998,
    "longitude_deg": -54.7231
  },
  "SWM": {
    "name": "Suia-Missu Airport",
    "latitude_deg": -11.67169952392578,
    "longitude_deg": -51.43470001220703
  },
  "BRG": {
    "name": "Whitesburg Municipal Airport",
    "latitude_deg": 37.2219,
    "longitude_deg": -82.8742
  },
  "NSB": {
    "name": "Bimini North Seaplane Base",
    "latitude_deg": 25.767000198364254,
    "longitude_deg": -79.25
  },
  "BSP": {
    "name": "Bensbach Airport",
    "latitude_deg": -8.858055555560002,
    "longitude_deg": 141.259444444
  },
  "BSV": {
    "name": "Besakoa Airport",
    "latitude_deg": -15.6725,
    "longitude_deg": 47.0616666667
  },
  "BTZ": {
    "name": "Betong International Airport",
    "latitude_deg": 5.79,
    "longitude_deg": 101.15
  },
  "BUL": {
    "name": "Bulolo Airport",
    "latitude_deg": -7.216286671410002,
    "longitude_deg": 146.649541855
  },
  "BVP": {
    "name": "Bolovip Airstrip",
    "latitude_deg": -5.3633,
    "longitude_deg": 141.655
  },
  "BVR": {
    "name": "Esperadinha Airport",
    "latitude_deg": 14.864306,
    "longitude_deg": -24.746
  },
  "HUK": {
    "name": "Hukuntsi Airport",
    "latitude_deg": -23.9897,
    "longitude_deg": 21.758101
  },
  "BWJ": {
    "name": "Bawan Airport",
    "latitude_deg": -6.396944444440002,
    "longitude_deg": 146.88166666700002
  },
  "BWP": {
    "name": "Bewani Airport",
    "latitude_deg": -3.0216666666700003,
    "longitude_deg": 141.165277778
  },
  "BXL": {
    "name": "Blue Lagoon Seaplane Base",
    "latitude_deg": -16.942999999999998,
    "longitude_deg": 177.368
  },
  "BXZ": {
    "name": "Bunsil Airport",
    "latitude_deg": -5.7243,
    "longitude_deg": 147.8667
  },
  "TXC": {
    "name": "Orsha Airport - Balbasovo Air Base",
    "latitude_deg": 54.439999,
    "longitude_deg": 30.2967
  },
  "BYA": {
    "name": "Boundary Airport",
    "latitude_deg": 64.0783004761,
    "longitude_deg": -141.113006592
  },
  "BYL": {
    "name": "Bella Yella Airport",
    "latitude_deg": 7.369166666669999,
    "longitude_deg": -9.99372222222
  },
  "BYV": {
    "name": "Beira Lake Seaplane Base",
    "latitude_deg": 6.9294444444400005,
    "longitude_deg": 79.85416666670002
  },
  "BCV": {
    "name": "Hector Silva Airstrip",
    "latitude_deg": 17.269603,
    "longitude_deg": -88.776496
  },
  "BGK": {
    "name": "Big Creek Airport",
    "latitude_deg": 16.519369,
    "longitude_deg": -88.407913
  },
  "CUK": {
    "name": "Caye Caulker Airport",
    "latitude_deg": 17.735015,
    "longitude_deg": -88.032862
  },
  "CYC": {
    "name": "Caye Chapel Airport",
    "latitude_deg": 17.683792,
    "longitude_deg": -88.044985
  },
  "CZH": {
    "name": "Corozal Municipal Airport",
    "latitude_deg": 18.382200241088867,
    "longitude_deg": -88.41190338134766
  },
  "DGA": {
    "name": "Dangriga Airport",
    "latitude_deg": 16.98251,
    "longitude_deg": -88.230988
  },
  "INB": {
    "name": "Independence Airport",
    "latitude_deg": 16.5345,
    "longitude_deg": -88.441299
  },
  "MDB": {
    "name": "Melinda Airport",
    "latitude_deg": 17.004299163800003,
    "longitude_deg": -88.30419921880001
  },
  "ORZ": {
    "name": "Orange Walk Airport",
    "latitude_deg": 18.0467662811,
    "longitude_deg": -88.58386993410002
  },
  "PLJ": {
    "name": "Placencia Airport",
    "latitude_deg": 16.536956787109375,
    "longitude_deg": -88.36151123046875
  },
  "PND": {
    "name": "Punta Gorda Airport",
    "latitude_deg": 16.102399826,
    "longitude_deg": -88.80829620360001
  },
  "SJX": {
    "name": "Sartaneja Airport",
    "latitude_deg": 18.35610008239746,
    "longitude_deg": -88.13079833984375
  },
  "SPR": {
    "name": "John Greif II Airport",
    "latitude_deg": 17.9139,
    "longitude_deg": -87.9711
  },
  "SQS": {
    "name": "Matthew Spain Airport",
    "latitude_deg": 17.1859,
    "longitude_deg": -89.0098
  },
  "STU": {
    "name": "Santa Cruz Airport",
    "latitude_deg": 18.2721004486084,
    "longitude_deg": -88.456298828125
  },
  "SVK": {
    "name": "Silver Creek Airport",
    "latitude_deg": 16.728338,
    "longitude_deg": -88.369174
  },
  "TZA": {
    "name": "Sir Barry Bowen Municipal Airport",
    "latitude_deg": 17.516389999999998,
    "longitude_deg": -88.194443
  },
  "BZB": {
    "name": "Bazaruto Island Airport",
    "latitude_deg": -21.5411,
    "longitude_deg": 35.4729
  },
  "BZM": {
    "name": "Bemolanga Airport",
    "latitude_deg": -17.6925,
    "longitude_deg": 45.0888333333
  },
  "BZS": {
    "name": "Buzzards Point Seaplane Base",
    "latitude_deg": 38.863,
    "longitude_deg": -77.01100000000001
  },
  "YYS": {
    "name": "Blissville Airport",
    "latitude_deg": 45.605633000000005,
    "longitude_deg": -66.543678
  },
  "YLM": {
    "name": "Clinton Creek Airport",
    "latitude_deg": 64.475545,
    "longitude_deg": -140.741748
  },
  "YGY": {
    "name": "Deception Airport",
    "latitude_deg": 62.112314446199996,
    "longitude_deg": -74.554681778
  },
  "YUJ": {
    "name": "Lady Franklin Point DEW Line Station",
    "latitude_deg": 68.475313,
    "longitude_deg": -113.224411
  },
  "YWO": {
    "name": "Lupin Airport",
    "latitude_deg": 65.7666702271,
    "longitude_deg": -111.25
  },
  "YAD": {
    "name": "Moose Lake Airport",
    "latitude_deg": 53.7062589637,
    "longitude_deg": -100.343971252
  },
  "YMD": {
    "name": "Mould Bay Airport",
    "latitude_deg": 76.2392,
    "longitude_deg": -119.3216
  },
  "YDE": {
    "name": "Paradise River Airport",
    "latitude_deg": 53.43,
    "longitude_deg": -57.233333587646
  },
  "YYI": {
    "name": "Rivers Airport",
    "latitude_deg": 50.0100557637,
    "longitude_deg": -100.31393051100001
  },
  "YSV": {
    "name": "Saglek Airport",
    "latitude_deg": 58.47511899999999,
    "longitude_deg": -62.655373
  },
  "YTJ": {
    "name": "Terrace Bay Airport",
    "latitude_deg": 48.81197898719999,
    "longitude_deg": -87.09943771360001
  },
  "YWN": {
    "name": "Winisk Airport",
    "latitude_deg": 55.2242,
    "longitude_deg": -85.1174
  },
  "YRR": {
    "name": "Stuart Island Airstrip",
    "latitude_deg": 50.40944743359999,
    "longitude_deg": -125.13161659200001
  },
  "YMV": {
    "name": "Mary River Aerodrome",
    "latitude_deg": 71.324167,
    "longitude_deg": -79.356944
  },
  "YBW": {
    "name": "Bedwell Harbour Seaplane Base",
    "latitude_deg": 48.75,
    "longitude_deg": -123.23300170899999
  },
  "YTP": {
    "name": "Tofino Harbour Seaplane Base",
    "latitude_deg": 49.155,
    "longitude_deg": -125.91
  },
  "YBM": {
    "name": "Bronson Creek Airport",
    "latitude_deg": 56.681098938000005,
    "longitude_deg": -131.087005615
  },
  "ZAA": {
    "name": "Alice Arm/Silver City Seaplane Base",
    "latitude_deg": 55.4667015076,
    "longitude_deg": -129.483001709
  },
  "ZNA": {
    "name": "Nanaimo Harbour Water Airport",
    "latitude_deg": 49.169813,
    "longitude_deg": -123.93384499999999
  },
  "YZZ": {
    "name": "Trail Airport",
    "latitude_deg": 49.0555992126,
    "longitude_deg": -117.60900116
  },
  "YMB": {
    "name": "Merritt Airport",
    "latitude_deg": 50.1227989197,
    "longitude_deg": -120.747001648
  },
  "YHH": {
    "name": "Campbell River Seaplane Base",
    "latitude_deg": 50.049999,
    "longitude_deg": -125.25
  },
  "YWS": {
    "name": "Whistler/Green Lake Water Aerodrome",
    "latitude_deg": 50.1436004639,
    "longitude_deg": -122.948997498
  },
  "YBF": {
    "name": "Bamfield Seaplane Base",
    "latitude_deg": 48.8333015442,
    "longitude_deg": -125.133003235
  },
  "YIG": {
    "name": "Big Bay Seaplane Base",
    "latitude_deg": 50.3923,
    "longitude_deg": -125.1372
  },
  "CJH": {
    "name": "Chilko Lake (Tsylos Park Lodge) Airport",
    "latitude_deg": 51.625797,
    "longitude_deg": -124.144478
  },
  "YPT": {
    "name": "Pender Harbour Seaplane Base",
    "latitude_deg": 49.623785,
    "longitude_deg": -124.02488400000001
  },
  "ZOF": {
    "name": "Ocean Falls Seaplane Base",
    "latitude_deg": 52.3666992188,
    "longitude_deg": -127.717002869
  },
  "YCA": {
    "name": "Courtenay Airpark",
    "latitude_deg": 49.679401397705,
    "longitude_deg": -124.9820022583
  },
  "CFQ": {
    "name": "Creston Valley Regional Airport - Art Sutcliffe Field",
    "latitude_deg": 49.03689956665,
    "longitude_deg": -116.49800109863001
  },
  "YAA": {
    "name": "Anahim Lake Airport",
    "latitude_deg": 52.451501,
    "longitude_deg": -125.303776
  },
  "DGF": {
    "name": "Douglas Lake Airport",
    "latitude_deg": 50.1654600485,
    "longitude_deg": -120.17127335100001
  },
  "JHL": {
    "name": "Fort MacKay/Albian Aerodrome",
    "latitude_deg": 57.2238998413,
    "longitude_deg": -111.418998718
  },
  "ZTS": {
    "name": "Tahsis Seaplane Base",
    "latitude_deg": 49.9166984558,
    "longitude_deg": -126.666999817
  },
  "DUQ": {
    "name": "Duncan Airport",
    "latitude_deg": 48.754534,
    "longitude_deg": -123.70970200000001
  },
  "YPI": {
    "name": "Port Simpson Seaplane Base",
    "latitude_deg": 54.5667,
    "longitude_deg": -130.432999
  },
  "YHS": {
    "name": "Sechelt-Gibsons Airport",
    "latitude_deg": 49.460601806599996,
    "longitude_deg": -123.71900177
  },
  "YKK": {
    "name": "Kitkatla Seaplane Base",
    "latitude_deg": 53.7999992371,
    "longitude_deg": -130.432998657
  },
  "WPL": {
    "name": "Powell Lake Seaplane Base",
    "latitude_deg": 49.8833007812,
    "longitude_deg": -124.532997131
  },
  "XQU": {
    "name": "Qualicum Beach Airport",
    "latitude_deg": 49.3372,
    "longitude_deg": -124.393997
  },
  "YMP": {
    "name": "Port Mcneill Airport",
    "latitude_deg": 50.5755996704,
    "longitude_deg": -127.028999329
  },
  "YRN": {
    "name": "Rivers Inlet Seaplane Base",
    "latitude_deg": 51.683985,
    "longitude_deg": -127.264044
  },
  "YTG": {
    "name": "Sullivan Bay Seaplane Base",
    "latitude_deg": 50.885359,
    "longitude_deg": -126.831069
  },
  "YMU": {
    "name": "Mansons Landing Seaplane Base",
    "latitude_deg": 50.0666999817,
    "longitude_deg": -124.98300170899999
  },
  "YAV": {
    "name": "Mayne Island Seaplane Base",
    "latitude_deg": 48.852241,
    "longitude_deg": -123.30198200000001
  },
  "YSX": {
    "name": "Bella Bella/Shearwater Seaplane Base",
    "latitude_deg": 52.150002,
    "longitude_deg": -128.08299
  },
  "YGG": {
    "name": "Ganges Seaplane Base",
    "latitude_deg": 48.8545,
    "longitude_deg": -123.4969
  },
  "YTB": {
    "name": "Hartley Bay Seaplane Base",
    "latitude_deg": 53.416698,
    "longitude_deg": -129.25
  },
  "YZA": {
    "name": "Cache Creek-Ashcroft Regional Airport",
    "latitude_deg": 50.775258,
    "longitude_deg": -121.32131399999999
  },
  "ZEL": {
    "name": "Bella Bella (Campbell Island) Airport",
    "latitude_deg": 52.185001,
    "longitude_deg": -128.156994
  },
  "CBC": {
    "name": "Cherrabun Airport",
    "latitude_deg": -18.917777777800005,
    "longitude_deg": 125.53777777799999
  },
  "YTX": {
    "name": "Telegraph Creek Airport",
    "latitude_deg": 57.916698,
    "longitude_deg": -131.117007
  },
  "YPB": {
    "name": "Alberni Valley Regional Airport",
    "latitude_deg": 49.321899,
    "longitude_deg": -124.931
  },
  "YBO": {
    "name": "Bob Quinn Lake Airport",
    "latitude_deg": 56.9667015076,
    "longitude_deg": -130.25
  },
  "TNS": {
    "name": "Tungsten (Cantung) Airport",
    "latitude_deg": 61.956901550293,
    "longitude_deg": -128.20300292969
  },
  "TUX": {
    "name": "Tumbler Ridge Airport",
    "latitude_deg": 55.025001525879,
    "longitude_deg": -120.93499755859
  },
  "YWM": {
    "name": "Williams Harbour Airport",
    "latitude_deg": 52.56689834594727,
    "longitude_deg": -55.78469848632813
  },
  "YSO": {
    "name": "Postville Airport",
    "latitude_deg": 54.9105,
    "longitude_deg": -59.78507
  },
  "YBI": {
    "name": "Black Tickle Airport",
    "latitude_deg": 53.469398498500006,
    "longitude_deg": -55.784999847399995
  },
  "YFX": {
    "name": "St. Lewis (Fox Harbour) Airport",
    "latitude_deg": 52.37279891967773,
    "longitude_deg": -55.67390060424805
  },
  "YHA": {
    "name": "Port Hope Simpson Airport",
    "latitude_deg": 52.528099060058594,
    "longitude_deg": -56.28609848022461
  },
  "YRG": {
    "name": "Rigolet Airport",
    "latitude_deg": 54.1796989440918,
    "longitude_deg": -58.45750045776367
  },
  "DVK": {
    "name": "Diavik Airport",
    "latitude_deg": 64.5113983154,
    "longitude_deg": -110.289001465
  },
  "JOJ": {
    "name": "Doris Lake",
    "latitude_deg": 68.1252746582,
    "longitude_deg": -106.58528137200001
  },
  "ZFW": {
    "name": "Fairview Airport",
    "latitude_deg": 56.081401825,
    "longitude_deg": -118.434997559
  },
  "YJP": {
    "name": "Hinton/Jasper-Hinton Airport",
    "latitude_deg": 53.3191986084,
    "longitude_deg": -117.752998352
  },
  "YLE": {
    "name": "What\u00ec Airport",
    "latitude_deg": 63.13169860839844,
    "longitude_deg": -117.24600219726562
  },
  "YGC": {
    "name": "Grande Cache Airport",
    "latitude_deg": 53.916901,
    "longitude_deg": -118.874001
  },
  "YDC": {
    "name": "Drayton Valley Industrial Airport",
    "latitude_deg": 53.265800476074,
    "longitude_deg": -114.95999908446998
  },
  "NML": {
    "name": "Fort McMurray / Mildred Lake Airport",
    "latitude_deg": 57.0555992126,
    "longitude_deg": -111.573997498
  },
  "CFM": {
    "name": "Conklin (Leismer) Airport",
    "latitude_deg": 55.695301,
    "longitude_deg": -111.278999
  },
  "ZSP": {
    "name": "St. Paul Airport",
    "latitude_deg": 53.9933013916,
    "longitude_deg": -111.379997253
  },
  "GSL": {
    "name": "Taltheilei Narrows Airport",
    "latitude_deg": 62.5980987549,
    "longitude_deg": -111.54299926799999
  },
  "XMP": {
    "name": "Macmillan Pass Airport",
    "latitude_deg": 63.181098938000005,
    "longitude_deg": -130.20199585
  },
  "DAS": {
    "name": "Great Bear Lake Airport",
    "latitude_deg": 66.7031021118,
    "longitude_deg": -119.70700073200001
  },
  "YFI": {
    "name": "Fort Mackay / Firebag",
    "latitude_deg": 57.275833,
    "longitude_deg": -110.976666
  },
  "YFJ": {
    "name": "Wekwe\u00e8t\u00ec Airport",
    "latitude_deg": 64.190804,
    "longitude_deg": -114.07700200000001
  },
  "YOE": {
    "name": "Donnelly Airport",
    "latitude_deg": 55.7094,
    "longitude_deg": -117.094002
  },
  "TIL": {
    "name": "Cheadle Airport",
    "latitude_deg": 51.05749893188501,
    "longitude_deg": -113.62400054931999
  },
  "OKG": {
    "name": "Okoyo Airport",
    "latitude_deg": -1.4483300447463998,
    "longitude_deg": 15.073300361633
  },
  "CGA": {
    "name": "Craig Seaplane Base",
    "latitude_deg": 55.47880172729492,
    "longitude_deg": -133.14799499511722
  },
  "CGC": {
    "name": "Cape Gloucester Airport",
    "latitude_deg": -5.458965,
    "longitude_deg": 148.432417
  },
  "CGG": {
    "name": "Casiguran Airport",
    "latitude_deg": 16.1941,
    "longitude_deg": 122.0651
  },
  "GHK": {
    "name": "Gahcho Kue",
    "latitude_deg": 63.435198,
    "longitude_deg": -109.14481200000002
  },
  "CGT": {
    "name": "Chinguetti Airport",
    "latitude_deg": 20.5055,
    "longitude_deg": -12.3978
  },
  "CHP": {
    "name": "Circle Hot Springs Airport",
    "latitude_deg": 65.485496521,
    "longitude_deg": -144.61099243200002
  },
  "CIV": {
    "name": "Chomley Seaplane Base",
    "latitude_deg": 55.217,
    "longitude_deg": -132.21
  },
  "LRQ": {
    "name": "Laurie River Airport",
    "latitude_deg": 56.2486000061,
    "longitude_deg": -101.304000854
  },
  "YDJ": {
    "name": "Hatchet Lake Airport",
    "latitude_deg": 58.662498474121,
    "longitude_deg": -103.53800201416
  },
  "YDU": {
    "name": "Kasba Lake Airport",
    "latitude_deg": 60.291900634765994,
    "longitude_deg": -102.50199890136999
  },
  "YFL": {
    "name": "Fort Reliance Seaplane Base",
    "latitude_deg": 62.7,
    "longitude_deg": -109.167
  },
  "XCL": {
    "name": "Cluff Lake Airport",
    "latitude_deg": 58.391101837200004,
    "longitude_deg": -109.51599884
  },
  "YKE": {
    "name": "Knee Lake Airport",
    "latitude_deg": 54.915298,
    "longitude_deg": -94.798103
  },
  "SUR": {
    "name": "Summer Beaver Airport",
    "latitude_deg": 52.70859909057617,
    "longitude_deg": -88.54190063476562
  },
  "CKD": {
    "name": "Crooked Creek Airport",
    "latitude_deg": 61.867900848400005,
    "longitude_deg": -158.13499450700002
  },
  "YTT": {
    "name": "Tisdale Airport",
    "latitude_deg": 52.836700439453004,
    "longitude_deg": -104.06700134277
  },
  "YAX": {
    "name": "Wapekeka Airport",
    "latitude_deg": 53.84920120239258,
    "longitude_deg": -89.57939910888672
  },
  "WNN": {
    "name": "Wunnumin Lake Airport",
    "latitude_deg": 52.89390182495117,
    "longitude_deg": -89.28919982910156
  },
  "YBS": {
    "name": "Opapimiskan Lake Airport",
    "latitude_deg": 52.6067008972,
    "longitude_deg": -90.3768997192
  },
  "YNO": {
    "name": "North Spirit Lake Airport",
    "latitude_deg": 52.4900016784668,
    "longitude_deg": -92.97109985351562
  },
  "CKR": {
    "name": "Crane Island Airstrip",
    "latitude_deg": 48.5978,
    "longitude_deg": -122.9979
  },
  "CKU": {
    "name": "Cordova Municipal Airport",
    "latitude_deg": 60.5438995361,
    "longitude_deg": -145.727005005
  },
  "YDW": {
    "name": "North of Sixty Airport",
    "latitude_deg": 60.316398620605,
    "longitude_deg": -103.12899780273001
  },
  "CKX": {
    "name": "Chicken Airport",
    "latitude_deg": 64.0712966919,
    "longitude_deg": -141.95199585
  },
  "CLC": {
    "name": "Clear Lake Metroport",
    "latitude_deg": 29.5555,
    "longitude_deg": -95.1383
  },
  "CLG": {
    "name": "New Coalinga Municipal Airport",
    "latitude_deg": 36.16310119628906,
    "longitude_deg": -120.29399871826172
  },
  "CMT": {
    "name": "New Camet\u00e1 Airport",
    "latitude_deg": -2.2468,
    "longitude_deg": -49.56
  },
  "CMZ": {
    "name": "Caia Airport",
    "latitude_deg": -17.8331,
    "longitude_deg": 35.3341
  },
  "TVS": {
    "name": "Tangshan Sann\u00fche Airport",
    "latitude_deg": 39.7178001404,
    "longitude_deg": 118.00262451200001
  },
  "YUA": {
    "name": "Yuanmou Air Base",
    "latitude_deg": 25.737499237061,
    "longitude_deg": 101.88200378418001
  },
  "ZQZ": {
    "name": "Zhangjiakou Ningyuan Airport",
    "latitude_deg": 40.7386016846,
    "longitude_deg": 114.930000305
  },
  "BSD": {
    "name": "Baoshan Yunrui Airport",
    "latitude_deg": 25.053301,
    "longitude_deg": 99.168297
  },
  "DZU": {
    "name": "Dazu Air Base",
    "latitude_deg": 29.636227,
    "longitude_deg": 105.77362099999999
  },
  "LNJ": {
    "name": "Lincang Boshang Airport",
    "latitude_deg": 23.7381,
    "longitude_deg": 100.025002
  },
  "RKZ": {
    "name": "Xigaze Peace Airport / Shigatse Air Base",
    "latitude_deg": 29.3519,
    "longitude_deg": 89.311401
  },
  "PZI": {
    "name": "Bao'anying Airport",
    "latitude_deg": 26.54,
    "longitude_deg": 101.79852
  },
  "ZKL": {
    "name": "Zigong Fengming Airport",
    "latitude_deg": 29.376484,
    "longitude_deg": 104.625789
  },
  "FUO": {
    "name": "Foshan Shadi Airport",
    "latitude_deg": 23.0833,
    "longitude_deg": 113.07
  },
  "BZX": {
    "name": "Bazhong Enyang Airport",
    "latitude_deg": 31.73842,
    "longitude_deg": 106.64487199999999
  },
  "XAI": {
    "name": "Xinyang Minggang Airport",
    "latitude_deg": 32.540819,
    "longitude_deg": 114.07914099999999
  },
  "HUZ": {
    "name": "Huizhou Pingtan Airport",
    "latitude_deg": 23.049999,
    "longitude_deg": 114.599998
  },
  "DFA": {
    "name": "Shangluo Airport",
    "latitude_deg": 33.708533,
    "longitude_deg": 110.249284
  },
  "HSC": {
    "name": "Shaoguan Guitou Airport",
    "latitude_deg": 24.9786,
    "longitude_deg": 113.420998
  },
  "JGS": {
    "name": "Jinggangshan Airport",
    "latitude_deg": 26.856899,
    "longitude_deg": 114.73700000000001
  },
  "AEB": {
    "name": "Baise Youjiang Airport",
    "latitude_deg": 23.7206,
    "longitude_deg": 106.959999
  },
  "DOY": {
    "name": "Dongying Shengli Airport",
    "latitude_deg": 37.508598327600005,
    "longitude_deg": 118.788002014
  },
  "XEN": {
    "name": "Xingcheng Air Base",
    "latitude_deg": 40.580328,
    "longitude_deg": 120.700374
  },
  "AAT": {
    "name": "Altay Airport",
    "latitude_deg": 47.749886,
    "longitude_deg": 88.085808
  },
  "THQ": {
    "name": "Tianshui Maijishan Airport",
    "latitude_deg": 34.559399,
    "longitude_deg": 105.860001
  },
  "YZY": {
    "name": "Zhangye Ganzhou Airport",
    "latitude_deg": 38.801899,
    "longitude_deg": 100.675003
  },
  "DWS": {
    "name": "Walt Disney World Airport / Lake Buena Vista STOLport",
    "latitude_deg": 28.399444,
    "longitude_deg": -81.571278
  },
  "TAO": {
    "name": "Qingdao Jiaodong International Airport",
    "latitude_deg": 36.361953,
    "longitude_deg": 120.088171
  },
  "LCT": {
    "name": "Shijiazhuang Luancheng Airport",
    "latitude_deg": 37.91305,
    "longitude_deg": 114.59166
  },
  "NAY": {
    "name": "Beijing Nanjiao Airport",
    "latitude_deg": 39.48595,
    "longitude_deg": 116.37236000000001
  },
  "DDG": {
    "name": "Dandong Langtou Airport",
    "latitude_deg": 40.0247,
    "longitude_deg": 124.28600300000001
  },
  "HQL": {
    "name": "Tashkurgan Airport (under construction)",
    "latitude_deg": 37.661333,
    "longitude_deg": 75.288877
  },
  "JDE": {
    "name": "Jiande Qiandaohu General Airport",
    "latitude_deg": 29.360905,
    "longitude_deg": 119.180829
  },
  "HLJ": {
    "name": "Zhaodong Beidahuang General Airport",
    "latitude_deg": 46.127790000000005,
    "longitude_deg": 125.77354
  },
  "TYC": {
    "name": "Taiyuan Yaocheng Airport",
    "latitude_deg": 37.50312,
    "longitude_deg": 112.424126
  },
  "NTG": {
    "name": "Nantong Airport",
    "latitude_deg": 32.0708007812,
    "longitude_deg": 120.975997925
  },
  "XBE": {
    "name": "Bearskin Lake Airport",
    "latitude_deg": 53.965599060058594,
    "longitude_deg": -91.0271987915039
  },
  "YNP": {
    "name": "Natuashish Airport",
    "latitude_deg": 55.913897999999996,
    "longitude_deg": -61.184399
  },
  "YWR": {
    "name": "White River Seaplane Base",
    "latitude_deg": 48.6269,
    "longitude_deg": -85.223297
  },
  "YPD": {
    "name": "Parry Sound Area Municipal Airport",
    "latitude_deg": 45.2575,
    "longitude_deg": -79.829697
  },
  "XBR": {
    "name": "Brockville - Thousand Islands Regional Tackaberry Airport",
    "latitude_deg": 44.6394004822,
    "longitude_deg": -75.7502975464
  },
  "KIF": {
    "name": "Kingfisher Lake Airport",
    "latitude_deg": 53.01250076293945,
    "longitude_deg": -89.85530090332031
  },
  "YOG": {
    "name": "Ogoki Post Airport",
    "latitude_deg": 51.65859985350001,
    "longitude_deg": -85.9017028809
  },
  "PRM": {
    "name": "Portim\u00e3o Airport",
    "latitude_deg": 37.1493,
    "longitude_deg": -8.583960000000001
  },
  "ARQ": {
    "name": "El Troncal Airport",
    "latitude_deg": 7.02106,
    "longitude_deg": -71.388901
  },
  "LCR": {
    "name": "La Chorrera Airport",
    "latitude_deg": -0.733333,
    "longitude_deg": -73.01666999999999
  },
  "SNT": {
    "name": "Las Cruces Airport",
    "latitude_deg": 7.38322,
    "longitude_deg": -73.505402
  },
  "TCD": {
    "name": "Tarapac\u00e1 Airport",
    "latitude_deg": -2.8947220000000002,
    "longitude_deg": -69.747222
  },
  "YEB": {
    "name": "Bar River Airport",
    "latitude_deg": 46.42029953,
    "longitude_deg": -84.0922012329
  },
  "CPI": {
    "name": "Cape Orford Airport",
    "latitude_deg": -5.448333333330001,
    "longitude_deg": 152.081944444
  },
  "YSI": {
    "name": "Parry Sound/Frying Pan Island-Sans Souci Seaplane Base",
    "latitude_deg": 45.173302,
    "longitude_deg": -80.137497
  },
  "YHP": {
    "name": "Poplar Hill Airport",
    "latitude_deg": 52.1133,
    "longitude_deg": -94.2556
  },
  "KEW": {
    "name": "Keewaywin Airport",
    "latitude_deg": 52.9911003113,
    "longitude_deg": -92.8364028931
  },
  "KFM": {
    "name": "Kirby Lake Airport",
    "latitude_deg": 55.355598,
    "longitude_deg": -110.637001
  },
  "YSA": {
    "name": "Sable Island Landing Strip",
    "latitude_deg": 43.930951,
    "longitude_deg": -59.996147
  },
  "YLS": {
    "name": "Lebel-sur-Quevillon Airport",
    "latitude_deg": 49.0303001404,
    "longitude_deg": -77.0171966553
  },
  "YNX": {
    "name": "Snap Lake Airport",
    "latitude_deg": 63.593601,
    "longitude_deg": -110.905998
  },
  "SSQ": {
    "name": "La Sarre Airport",
    "latitude_deg": 48.917198181152,
    "longitude_deg": -79.178596496582
  },
  "YKU": {
    "name": "Chisasibi Airport",
    "latitude_deg": 53.80559921264648,
    "longitude_deg": -78.91690063476562
  },
  "EHT": {
    "name": "Rentschler Heliport",
    "latitude_deg": 41.7517,
    "longitude_deg": -72.6253
  },
  "ZTB": {
    "name": "T\u00eate-\u00e0-la-Baleine Airport",
    "latitude_deg": 50.674400329589844,
    "longitude_deg": -59.38359832763672
  },
  "ZKG": {
    "name": "Kegaska Airport",
    "latitude_deg": 50.1958007812,
    "longitude_deg": -61.2658004761
  },
  "YWQ": {
    "name": "Chute-Des-Passes/Lac Margane Seaplane Base",
    "latitude_deg": 49.9434,
    "longitude_deg": -71.138
  },
  "CTP": {
    "name": "Carutapera Airport",
    "latitude_deg": -1.225365,
    "longitude_deg": -46.019057000000004
  },
  "YAU": {
    "name": "Donaldson Airport",
    "latitude_deg": 61.662200927700006,
    "longitude_deg": -73.3214035034
  },
  "TR7": {
    "name": "Ottawa / Rockcliffe Seaplane Base",
    "latitude_deg": 45.463832946100005,
    "longitude_deg": -75.64254283910002
  },
  "ZGS": {
    "name": "La Romaine Airport",
    "latitude_deg": 50.259701,
    "longitude_deg": -60.679401
  },
  "YFG": {
    "name": "Fontanges Airport",
    "latitude_deg": 54.553901672363004,
    "longitude_deg": -71.173301696777
  },
  "YGA": {
    "name": "Yongchuan Da'an General Airport",
    "latitude_deg": 29.356666999999998,
    "longitude_deg": 106.01044099999999
  },
  "ZLT": {
    "name": "La Tabati\u00e8re Airport",
    "latitude_deg": 50.8307991027832,
    "longitude_deg": -58.97560119628906
  },
  "PST": {
    "name": "Preston Airport",
    "latitude_deg": 20.73327,
    "longitude_deg": -75.659258
  },
  "CUJ": {
    "name": "Culion Airport",
    "latitude_deg": 11.8553,
    "longitude_deg": 119.9378
  },
  "HLI": {
    "name": "Hollister Municipal Airport",
    "latitude_deg": 36.8932991028,
    "longitude_deg": -121.41000366200001
  },
  "CVL": {
    "name": "Cape Vogel Airport",
    "latitude_deg": -9.67,
    "longitude_deg": 150.019722222
  },
  "CVR": {
    "name": "Hughes Airport",
    "latitude_deg": 33.975,
    "longitude_deg": -118.417
  },
  "WXR": {
    "name": "Croker River Airport",
    "latitude_deg": 69.290565,
    "longitude_deg": -119.174259
  },
  "CXC": {
    "name": "Chitina Airport",
    "latitude_deg": 61.582901001,
    "longitude_deg": -144.427001953
  },
  "GEC": {
    "name": "Lefkoniko Airport / Ge\u00e7itkale Air Base",
    "latitude_deg": 35.235946999999996,
    "longitude_deg": 33.724358
  },
  "NIC": {
    "name": "Nicosia International Airport",
    "latitude_deg": 35.150798797600004,
    "longitude_deg": 33.278701782199995
  },
  "YAB": {
    "name": "Arctic Bay Airport",
    "latitude_deg": 73.006101,
    "longitude_deg": -85.04616
  },
  "YAC": {
    "name": "Cat Lake Airport",
    "latitude_deg": 51.72719955444336,
    "longitude_deg": -91.82440185546876
  },
  "YAR": {
    "name": "La Grande-3 Airport",
    "latitude_deg": 53.5717010498,
    "longitude_deg": -76.19640350339998
  },
  "YAG": {
    "name": "Fort Frances Municipal Airport",
    "latitude_deg": 48.655749,
    "longitude_deg": -93.44349
  },
  "YAH": {
    "name": "La Grande-4 Airport",
    "latitude_deg": 53.754699707,
    "longitude_deg": -73.67530059810001
  },
  "YAL": {
    "name": "Alert Bay Airport",
    "latitude_deg": 50.58219909667969,
    "longitude_deg": -126.91600036621094
  },
  "YAM": {
    "name": "Sault Ste Marie Airport",
    "latitude_deg": 46.485001000000004,
    "longitude_deg": -84.509399
  },
  "XKS": {
    "name": "Kasabonika Airport",
    "latitude_deg": 53.52470016479492,
    "longitude_deg": -88.6427993774414
  },
  "YKG": {
    "name": "Kangirsuk Airport",
    "latitude_deg": 60.027198791503906,
    "longitude_deg": -69.99919891357422
  },
  "YAT": {
    "name": "Attawapiskat Airport",
    "latitude_deg": 52.9275016784668,
    "longitude_deg": -82.43190002441406
  },
  "YAY": {
    "name": "St. Anthony Airport",
    "latitude_deg": 51.391899108900006,
    "longitude_deg": -56.083099365200006
  },
  "YAZ": {
    "name": "Tofino / Long Beach Airport",
    "latitude_deg": 49.079833,
    "longitude_deg": -125.77558300000001
  },
  "YBA": {
    "name": "Banff Airport",
    "latitude_deg": 51.208222,
    "longitude_deg": -115.540624
  },
  "YBB": {
    "name": "Kugaaruk Airport",
    "latitude_deg": 68.534401,
    "longitude_deg": -89.808098
  },
  "YBC": {
    "name": "Baie-Comeau Airport",
    "latitude_deg": 49.1325,
    "longitude_deg": -68.204399
  },
  "QBC": {
    "name": "Bella Coola Airport",
    "latitude_deg": 52.387501,
    "longitude_deg": -126.596001
  },
  "YBE": {
    "name": "Uranium City Airport",
    "latitude_deg": 59.5614013671875,
    "longitude_deg": -108.4810028076172
  },
  "YBY": {
    "name": "Bonnyville Airport",
    "latitude_deg": 54.304199,
    "longitude_deg": -110.744003
  },
  "YBG": {
    "name": "CFB Bagotville",
    "latitude_deg": 48.33060073852539,
    "longitude_deg": -70.99639892578125
  },
  "YBK": {
    "name": "Baker Lake Airport",
    "latitude_deg": 64.29889678960001,
    "longitude_deg": -96.077796936
  },
  "YBL": {
    "name": "Campbell River Airport",
    "latitude_deg": 49.950802,
    "longitude_deg": -125.271004
  },
  "XTL": {
    "name": "Tadoule Lake Airport",
    "latitude_deg": 58.7061,
    "longitude_deg": -98.512199
  },
  "YBR": {
    "name": "Brandon Municipal Airport",
    "latitude_deg": 49.91,
    "longitude_deg": -99.951897
  },
  "YBT": {
    "name": "Brochet Airport",
    "latitude_deg": 57.8894,
    "longitude_deg": -101.679001
  },
  "YBV": {
    "name": "Berens River Airport",
    "latitude_deg": 52.358897999999996,
    "longitude_deg": -97.018303
  },
  "YBX": {
    "name": "Lourdes-de-Blanc-Sablon Airport",
    "latitude_deg": 51.4436,
    "longitude_deg": -57.185299
  },
  "YRF": {
    "name": "Cartwright Airport",
    "latitude_deg": 53.68280029296875,
    "longitude_deg": -57.04190063476562
  },
  "YCB": {
    "name": "Cambridge Bay Airport",
    "latitude_deg": 69.1081008911,
    "longitude_deg": -105.13800048799999
  },
  "YCC": {
    "name": "Cornwall Regional Airport",
    "latitude_deg": 45.092636999999996,
    "longitude_deg": -74.567724
  },
  "YCD": {
    "name": "Nanaimo Airport",
    "latitude_deg": 49.054970000000004,
    "longitude_deg": -123.869863
  },
  "YCE": {
    "name": "Centralia / James T. Field Memorial Aerodrome",
    "latitude_deg": 43.285599,
    "longitude_deg": -81.508301
  },
  "YCG": {
    "name": "Castlegar/West Kootenay Regional Airport",
    "latitude_deg": 49.296398162799996,
    "longitude_deg": -117.63200378399999
  },
  "YCH": {
    "name": "Miramichi Airport",
    "latitude_deg": 47.007801,
    "longitude_deg": -65.449203
  },
  "XCM": {
    "name": "Chatham Kent Airport",
    "latitude_deg": 42.3064002991,
    "longitude_deg": -82.0819015503
  },
  "YCL": {
    "name": "Charlo Airport",
    "latitude_deg": 47.990798999999996,
    "longitude_deg": -66.330299
  },
  "YCN": {
    "name": "Cochrane Airport",
    "latitude_deg": 49.10559844970703,
    "longitude_deg": -81.01360321044922
  },
  "YCO": {
    "name": "Kugluktuk Airport",
    "latitude_deg": 67.816704,
    "longitude_deg": -115.143997
  },
  "YCQ": {
    "name": "Chetwynd Airport",
    "latitude_deg": 55.68719863891602,
    "longitude_deg": -121.6269989013672
  },
  "YCR": {
    "name": "Cross Lake (Charlie Sinclair Memorial) Airport",
    "latitude_deg": 54.61059951782226,
    "longitude_deg": -97.76080322265624
  },
  "YCS": {
    "name": "Chesterfield Inlet Airport",
    "latitude_deg": 63.346900939899996,
    "longitude_deg": -90.7311019897
  },
  "YCT": {
    "name": "Coronation Airport",
    "latitude_deg": 52.0750007629,
    "longitude_deg": -111.444999695
  },
  "YCV": {
    "name": "Cartierville Airport",
    "latitude_deg": 45.5167007446289,
    "longitude_deg": -73.7166976928711
  },
  "YCW": {
    "name": "Chilliwack Airport",
    "latitude_deg": 49.153157,
    "longitude_deg": -121.93930900000001
  },
  "YCY": {
    "name": "Clyde River Airport",
    "latitude_deg": 70.4860992432,
    "longitude_deg": -68.5167007446
  },
  "YCZ": {
    "name": "Fairmont Hot Springs Airport",
    "latitude_deg": 50.331052,
    "longitude_deg": -115.87373899999999
  },
  "YDA": {
    "name": "Dawson City Airport",
    "latitude_deg": 64.04309844970703,
    "longitude_deg": -139.12800598144528
  },
  "YDB": {
    "name": "Burwash Airport",
    "latitude_deg": 61.37110137939453,
    "longitude_deg": -139.04100036621094
  },
  "YDF": {
    "name": "Deer Lake Airport",
    "latitude_deg": 49.21080017089844,
    "longitude_deg": -57.39139938354492
  },
  "YDL": {
    "name": "Dease Lake Airport",
    "latitude_deg": 58.4221992493,
    "longitude_deg": -130.031997681
  },
  "XRR": {
    "name": "Ross River Airport",
    "latitude_deg": 61.9706001282,
    "longitude_deg": -132.42300415
  },
  "YDN": {
    "name": "Dauphin Barker Airport",
    "latitude_deg": 51.10079956054688,
    "longitude_deg": -100.052001953125
  },
  "YDO": {
    "name": "Dolbeau St Felicien Airport",
    "latitude_deg": 48.778499603271,
    "longitude_deg": -72.375
  },
  "YDP": {
    "name": "Nain Airport",
    "latitude_deg": 56.54919815063477,
    "longitude_deg": -61.68030166625977
  },
  "YDQ": {
    "name": "Dawson Creek Airport",
    "latitude_deg": 55.7422981262207,
    "longitude_deg": -120.18299865722656
  },
  "YEG": {
    "name": "Edmonton International Airport",
    "latitude_deg": 53.309700012200004,
    "longitude_deg": -113.580001831
  },
  "YEK": {
    "name": "Arviat Airport",
    "latitude_deg": 61.0942001343,
    "longitude_deg": -94.0708007812
  },
  "YEL": {
    "name": "Elliot Lake Municipal Airport",
    "latitude_deg": 46.351398468,
    "longitude_deg": -82.5614013672
  },
  "YEM": {
    "name": "Manitoulin East Municipal Airport",
    "latitude_deg": 45.842434999999995,
    "longitude_deg": -81.85759499999999
  },
  "YEN": {
    "name": "Estevan Airport",
    "latitude_deg": 49.210300445600005,
    "longitude_deg": -102.96600341799999
  },
  "YER": {
    "name": "Fort Severn Airport",
    "latitude_deg": 56.01890182495117,
    "longitude_deg": -87.67610168457031
  },
  "YET": {
    "name": "Edson Airport",
    "latitude_deg": 53.5788993835,
    "longitude_deg": -116.46499633799999
  },
  "YEU": {
    "name": "Eureka Airport",
    "latitude_deg": 79.9946975708,
    "longitude_deg": -85.814201355
  },
  "YEV": {
    "name": "Inuvik Mike Zubko Airport",
    "latitude_deg": 68.30419921880001,
    "longitude_deg": -133.483001709
  },
  "YEY": {
    "name": "Amos/Magny Airport",
    "latitude_deg": 48.563903,
    "longitude_deg": -78.249702
  },
  "YFA": {
    "name": "Fort Albany Airport",
    "latitude_deg": 52.20140075683594,
    "longitude_deg": -81.6968994140625
  },
  "YFB": {
    "name": "Iqaluit Airport",
    "latitude_deg": 63.756402,
    "longitude_deg": -68.555801
  },
  "YFC": {
    "name": "Fredericton Airport",
    "latitude_deg": 45.86890029907226,
    "longitude_deg": -66.53720092773439
  },
  "YFE": {
    "name": "Forestville Airport",
    "latitude_deg": 48.74610137939453,
    "longitude_deg": -69.09719848632811
  },
  "YFH": {
    "name": "Fort Hope Airport",
    "latitude_deg": 51.5619010925293,
    "longitude_deg": -87.90779876708984
  },
  "YTM": {
    "name": "Mont-Tremblant International Airport",
    "latitude_deg": 46.409401,
    "longitude_deg": -74.779999
  },
  "YFO": {
    "name": "Flin Flon Airport",
    "latitude_deg": 54.6781005859375,
    "longitude_deg": -101.68199920654295
  },
  "YFR": {
    "name": "Fort Resolution Airport",
    "latitude_deg": 61.1808013916,
    "longitude_deg": -113.690002441
  },
  "YFS": {
    "name": "Fort Simpson Airport",
    "latitude_deg": 61.76020050048828,
    "longitude_deg": -121.23699951171876
  },
  "YMN": {
    "name": "Makkovik Airport",
    "latitude_deg": 55.07690048217773,
    "longitude_deg": -59.1864013671875
  },
  "YGB": {
    "name": "Texada Gillies Bay Airport",
    "latitude_deg": 49.69419860839844,
    "longitude_deg": -124.51799774169922
  },
  "YGH": {
    "name": "Fort Good Hope Airport",
    "latitude_deg": 66.24079895019531,
    "longitude_deg": -128.6510009765625
  },
  "YGK": {
    "name": "Kingston Norman Rogers Airport",
    "latitude_deg": 44.22529983520508,
    "longitude_deg": -76.5969009399414
  },
  "YGL": {
    "name": "La Grande Rivi\u00e8re Airport",
    "latitude_deg": 53.62530136108398,
    "longitude_deg": -77.7042007446289
  },
  "YGM": {
    "name": "Gimli Industrial Park Airport",
    "latitude_deg": 50.62810134887695,
    "longitude_deg": -97.04329681396484
  },
  "YGO": {
    "name": "Gods Lake Narrows Airport",
    "latitude_deg": 54.55889892578125,
    "longitude_deg": -94.49140167236328
  },
  "YGP": {
    "name": "Gasp\u00e9 (Michel-Pouliot) Airport",
    "latitude_deg": 48.775299072299994,
    "longitude_deg": -64.4785995483
  },
  "YGQ": {
    "name": "Geraldton Greenstone Regional Airport",
    "latitude_deg": 49.77830123901367,
    "longitude_deg": -86.93939971923828
  },
  "YGR": {
    "name": "\u00celes-de-la-Madeleine Airport",
    "latitude_deg": 47.42470169067383,
    "longitude_deg": -61.778099060058594
  },
  "YGT": {
    "name": "Igloolik Airport",
    "latitude_deg": 69.3647003174,
    "longitude_deg": -81.8161010742
  },
  "YGV": {
    "name": "Havre-Saint-Pierre Airport",
    "latitude_deg": 50.281898,
    "longitude_deg": -63.611401
  },
  "YGW": {
    "name": "Kuujjuarapik Airport",
    "latitude_deg": 55.281898498535156,
    "longitude_deg": -77.76529693603516
  },
  "YGX": {
    "name": "Gillam Airport",
    "latitude_deg": 56.35749816894531,
    "longitude_deg": -94.71060180664062
  },
  "YGZ": {
    "name": "Grise Fiord Airport",
    "latitude_deg": 76.4261016846,
    "longitude_deg": -82.90920257570002
  },
  "YQC": {
    "name": "Quaqtaq Airport",
    "latitude_deg": 61.0463981628418,
    "longitude_deg": -69.6177978515625
  },
  "YHB": {
    "name": "Hudson Bay Airport",
    "latitude_deg": 52.8166999817,
    "longitude_deg": -102.31099700899999
  },
  "CXH": {
    "name": "Vancouver Harbour Water Aerodrome",
    "latitude_deg": 49.291265,
    "longitude_deg": -123.11717
  },
  "YHD": {
    "name": "Dryden Regional Airport",
    "latitude_deg": 49.831699,
    "longitude_deg": -92.744202
  },
  "YHE": {
    "name": "Hope Airport / FVRD Regional Airpark",
    "latitude_deg": 49.368865,
    "longitude_deg": -121.49495
  },
  "YHF": {
    "name": "Hearst Ren\u00e9 Fontaine Municipal Airport",
    "latitude_deg": 49.71419906616211,
    "longitude_deg": -83.68609619140625
  },
  "YNS": {
    "name": "Nemiscau Airport",
    "latitude_deg": 51.69110107421875,
    "longitude_deg": -76.1355972290039
  },
  "YHI": {
    "name": "Ulukhaktok Holman Airport",
    "latitude_deg": 70.76280212402344,
    "longitude_deg": -117.80599975585938
  },
  "YHK": {
    "name": "Gjoa Haven Airport",
    "latitude_deg": 68.635597229,
    "longitude_deg": -95.8497009277
  },
  "YHM": {
    "name": "John C. Munro Hamilton International Airport",
    "latitude_deg": 43.173599243199995,
    "longitude_deg": -79.93499755859999
  },
  "YHN": {
    "name": "Hornepayne Municipal Airport",
    "latitude_deg": 49.19309997558594,
    "longitude_deg": -84.75890350341797
  },
  "YHO": {
    "name": "Hopedale Airport",
    "latitude_deg": 55.44829940795898,
    "longitude_deg": -60.228599548339844
  },
  "YHR": {
    "name": "Chevery Airport",
    "latitude_deg": 50.46889877319336,
    "longitude_deg": -59.63669967651367
  },
  "YHT": {
    "name": "Haines Junction Airport",
    "latitude_deg": 60.78919982910156,
    "longitude_deg": -137.54600524902344
  },
  "YHU": {
    "name": "Montr\u00e9al / Saint-Hubert Airport",
    "latitude_deg": 45.5175018311,
    "longitude_deg": -73.4169006348
  },
  "YHY": {
    "name": "Hay River / Merlyn Carter Airport",
    "latitude_deg": 60.8396987915,
    "longitude_deg": -115.782997131
  },
  "YHZ": {
    "name": "Halifax / Stanfield International Airport",
    "latitude_deg": 44.880798339799995,
    "longitude_deg": -63.508598327600005
  },
  "YIB": {
    "name": "Atikokan Municipal Airport",
    "latitude_deg": 48.7738990784,
    "longitude_deg": -91.6386032104
  },
  "YDG": {
    "name": "Digby / Annapolis Regional Airport",
    "latitude_deg": 44.5458450365,
    "longitude_deg": -65.7854247093
  },
  "YIF": {
    "name": "St Augustin Airport",
    "latitude_deg": 51.2117004395,
    "longitude_deg": -58.6582984924
  },
  "YIK": {
    "name": "Ivujivik Airport",
    "latitude_deg": 62.41730117797852,
    "longitude_deg": -77.92530059814453
  },
  "YIO": {
    "name": "Pond Inlet Airport",
    "latitude_deg": 72.6832962036,
    "longitude_deg": -77.9666976929
  },
  "YIV": {
    "name": "Island Lake Airport",
    "latitude_deg": 53.857200622558594,
    "longitude_deg": -94.65360260009766
  },
  "YJA": {
    "name": "Jasper Airport",
    "latitude_deg": 52.996418000000006,
    "longitude_deg": -118.06023300000001
  },
  "YJF": {
    "name": "Fort Liard Airport",
    "latitude_deg": 60.2358016968,
    "longitude_deg": -123.46900177
  },
  "YJN": {
    "name": "St Jean Airport",
    "latitude_deg": 45.29439926147461,
    "longitude_deg": -73.28109741210938
  },
  "YJT": {
    "name": "Stephenville Airport",
    "latitude_deg": 48.5442008972168,
    "longitude_deg": -58.54999923706055
  },
  "YKA": {
    "name": "Kamloops Airport",
    "latitude_deg": 50.702201843299996,
    "longitude_deg": -120.444000244
  },
  "YKC": {
    "name": "Collins Bay Airport",
    "latitude_deg": 58.236099243199995,
    "longitude_deg": -103.678001404
  },
  "LAK": {
    "name": "Aklavik/Freddie Carmichael Airport",
    "latitude_deg": 68.223297,
    "longitude_deg": -135.00599
  },
  "YKF": {
    "name": "Waterloo Airport",
    "latitude_deg": 43.4608001709,
    "longitude_deg": -80.3786010742
  },
  "YWB": {
    "name": "Kangiqsujuaq (Wakeham Bay) Airport",
    "latitude_deg": 61.5886001587,
    "longitude_deg": -71.929397583
  },
  "YKJ": {
    "name": "Key Lake Airport",
    "latitude_deg": 57.25609970092773,
    "longitude_deg": -105.61799621582031
  },
  "YKL": {
    "name": "Schefferville Airport",
    "latitude_deg": 54.80530166625977,
    "longitude_deg": -66.8052978515625
  },
  "YKD": {
    "name": "Kincardine Municipal Airport",
    "latitude_deg": 44.201401000000004,
    "longitude_deg": -81.606697
  },
  "AKV": {
    "name": "Akulivik Airport",
    "latitude_deg": 60.81859970092773,
    "longitude_deg": -78.14859771728516
  },
  "YKQ": {
    "name": "Waskaganish Airport",
    "latitude_deg": 51.47330093383789,
    "longitude_deg": -78.75830078125
  },
  "YKX": {
    "name": "Kirkland Lake Airport",
    "latitude_deg": 48.21030044555664,
    "longitude_deg": -79.98139953613281
  },
  "YKY": {
    "name": "Kindersley Airport",
    "latitude_deg": 51.5175018311,
    "longitude_deg": -109.180999756
  },